[
	{
		"BookID" : "4.1.1",
		"Place" : "Ἄργους",
		"Links" : "http://dare.ht.lu.se/places/21779",
		"Lat" : "37.631561",
		"Lon" : "22.719464",
		"Type" : "settlement",
		"Label" : "Argos, Argos|Argos",
		"Tags" : "built|polis",
		"Comments" : null
	},
	{
		"BookID" : "4.1.1",
		"Place" : "Γερηνίαν",
		"Links" : "http://dare.ht.lu.se/places/27436",
		"Lat" : "36.927195",
		"Lon" : "22.208656",
		"Type" : "settlement",
		"Label" : "Gerenia/Gerena, Zarnatas?|Geren(i)a",
		"Tags" : "built|settlement",
		"Comments" : null
	},
	{
		"BookID" : "4.1.1",
		"Place" : "Λακωνικῇ",
		"Links" : "http://pleiades.stoa.org/places/570406",
		"Lat" : "37.07624042080912",
		"Lon" : "22.46082645177671",
		"Type" : "region",
		"Label" : "Lacedaemon/Laconia",
		"Tags" : "regional",
		"Comments" : null
	},
	{
		"BookID" : "4.1.1",
		"Place" : "Λακωνικὸν",
		"Links" : "http://pleiades.stoa.org/places/570406",
		"Lat" : "37.07624042080912",
		"Lon" : "22.46082645177671",
		"Type" : "region",
		"Label" : "Lacedaemon/Laconia",
		"Tags" : "regional",
		"Comments" : null
	},
	{
		"BookID" : "4.1.1",
		"Place" : "Μεσσηνίοις",
		"Links" : "http://topostext.org/place/372218RMes",
		"Lat" : "37.2",
		"Lon" : "21.8",
		"Type" : null,
		"Label" : "Messenia region (Messenia)",
		"Tags" : "historical|Messenians|proxy",
		"Comments" : null
	},
	{
		"BookID" : "4.1.2",
		"Place" : "Ἀνδανία",
		"Links" : "http://topostext.org/place/373219UAnd",
		"Lat" : "37.274",
		"Lon" : "21.936",
		"Type" : null,
		"Label" : "Andania (Messenia)",
		"Tags" : "built|polis",
		"Comments" : null
	},
	{
		"BookID" : "4.1.2",
		"Place" : "Ἄργους",
		"Links" : "http://dare.ht.lu.se/places/21779",
		"Lat" : "37.631561",
		"Lon" : "22.719464",
		"Type" : "settlement",
		"Label" : "Argos, Argos|Argos",
		"Tags" : "built|polis",
		"Comments" : null
	},
	{
		"BookID" : "4.1.2",
		"Place" : "Ἑλλήνων",
		"Links" : "http://pleiades.stoa.org/places/1001896",
		"Lat" : "37.5",
		"Lon" : "22.5",
		"Type" : "province",
		"Label" : "Hellas",
		"Tags" : "historical|Greeks|proxy",
		"Comments" : null
	},
	{
		"BookID" : "4.1.2",
		"Place" : "Λακεδαίμονος",
		"Links" : "http://topostext.org/place/371224PSpa",
		"Lat" : "37.0821",
		"Lon" : "22.4237",
		"Type" : null,
		"Label" : "Sparta/Lacedaemon (Lakonia)",
		"Tags" : "built|polis",
		"Comments" : null
	},
	{
		"BookID" : "4.1.2",
		"Place" : "Μεσσήνη",
		"Links" : "http://topostext.org/place/372218RMes",
		"Lat" : "37.2",
		"Lon" : "21.8",
		"Type" : null,
		"Label" : "Messenia region (Messenia)",
		"Tags" : "regional|chôra",
		"Comments" : null
	},
	{
		"BookID" : "4.1.3",
		"Place" : "Θηβαῖοι",
		"Links" : "http://dare.ht.lu.se/places/21952",
		"Lat" : "38.318092",
		"Lon" : "23.255096",
		"Type" : "sanctuary,settlement",
		"Label" : "Kabeirion, Kabeirion|Thebai, Thiva|Kabeirion|Thebai/Thebae",
		"Tags" : "historical|Thebans|proxy",
		"Comments" : null
	},
	{
		"BookID" : "4.1.3",
		"Place" : "Ἰθάκης",
		"Links" : "http://dare.ht.lu.se/places/41199",
		"Lat" : "38.44193",
		"Lon" : "20.638399",
		"Type" : "island,settlement",
		"Label" : "Ithaca, Ithaca|Ithaca Ins., Ithaca|Ithaca|Ithaca Ins.",
		"Tags" : "physical|island",
		"Comments" : null
	},
	{
		"BookID" : "4.1.3",
		"Place" : "Ἰθώμῃ",
		"Links" : "http://dare.ht.lu.se/places/43552",
		"Lat" : "37.1857343",
		"Lon" : "21.9249021",
		"Type" : "mountain",
		"Label" : "Ithome Mons, Ithome|Ithome M.",
		"Tags" : "physical|mountain",
		"Comments" : null
	},
	{
		"BookID" : "4.1.3",
		"Place" : "Ἴλιον",
		"Links" : "http://dare.ht.lu.se/places/21153",
		"Lat" : "39.9577",
		"Lon" : "26.23873",
		"Type" : "settlement",
		"Label" : "Ilium/Troia, Hisarlık|Ilium/Troia",
		"Tags" : "built|settlement|proxy",
		"Comments" : "proxy for war"
	},
	{
		"BookID" : "4.1.3",
		"Place" : "Λακεδαιμονίους",
		"Links" : "http://pleiades.stoa.org/places/570406",
		"Lat" : "37.07624042080912",
		"Lon" : "22.46082645177671",
		"Type" : "region",
		"Label" : "Lacedaemon/Laconia",
		"Tags" : "historical|Lacedaemonians|proxy",
		"Comments" : null
	},
	{
		"BookID" : "4.1.3",
		"Place" : "Λεύκτροις",
		"Links" : "http://dare.ht.lu.se/places/22839",
		"Lat" : "38.25422",
		"Lon" : "23.18095",
		"Type" : "settlement",
		"Label" : "Leuktra, Leuktra|Leuktra",
		"Tags" : "built|battlefield|proxy",
		"Comments" : "proxy for battle of Lectra"
	},
	{
		"BookID" : "4.1.3",
		"Place" : "Μεσσήνην",
		"Links" : "http://dare.ht.lu.se/places/21909",
		"Lat" : "37.175491",
		"Lon" : "21.920439",
		"Type" : "sanctuary,settlement,fort",
		"Label" : "Messene, Mavromati|Ithome, Ithomi|Sanctuary of Zeus Ithomatas, Mavromati|Ithome/Thamiai|Messene",
		"Tags" : "built|polis",
		"Comments" : null
	},
	{
		"BookID" : "4.1.3",
		"Place" : "Μεσσήνην",
		"Links" : "http://dare.ht.lu.se/places/21909",
		"Lat" : "37.175491",
		"Lon" : "21.920439",
		"Type" : "sanctuary,settlement,fort",
		"Label" : "Messene, Mavromati|Ithome, Ithomi|Sanctuary of Zeus Ithomatas, Mavromati|Ithome/Thamiai|Messene",
		"Tags" : "built|polis",
		"Comments" : null
	},
	{
		"BookID" : "4.1.3",
		"Place" : "Μεσσήνης",
		"Links" : "http://dare.ht.lu.se/places/21909",
		"Lat" : "37.175491",
		"Lon" : "21.920439",
		"Type" : "sanctuary,settlement,fort",
		"Label" : "Messene, Mavromati|Ithome, Ithomi|Sanctuary of Zeus Ithomatas, Mavromati|Ithome/Thamiai|Messene",
		"Tags" : "oikismos|built|polis",
		"Comments" : null
	},
	{
		"BookID" : "4.1.3",
		"Place" : "Μεσσήνιοι",
		"Links" : "http://topostext.org/place/372218RMes",
		"Lat" : "37.2",
		"Lon" : "21.8",
		"Type" : null,
		"Label" : "Messenia region (Messenia)",
		"Tags" : "historical|Messenians|proxy",
		"Comments" : null
	},
	{
		"BookID" : "4.1.3",
		"Place" : "Μεσσηνίους",
		"Links" : "http://topostext.org/place/372219PMes",
		"Lat" : "37.1779",
		"Lon" : "21.9195",
		"Type" : null,
		"Label" : "Messene (Messenia)",
		"Tags" : "historical|person|proxy",
		"Comments" : null
	},
	{
		"BookID" : "4.1.3",
		"Place" : "Πύλον",
		"Links" : "http://dare.ht.lu.se/places/31057",
		"Lat" : "37.899734",
		"Lon" : "21.518025",
		"Type" : "settlement",
		"Label" : "Pylos, Armatova/Agrapidochori|Pylos",
		"Tags" : "built|polis",
		"Comments" : null
	},
	{
		"BookID" : "4.1.4",
		"Place" : "Μεσσήνῃ",
		"Links" : "http://topostext.org/place/372219PMes",
		"Lat" : "37.1779",
		"Lon" : "21.9195",
		"Type" : null,
		"Label" : "Messene (Messenia)",
		"Tags" : "settlement|built|polis",
		"Comments" : null
	},
	{
		"BookID" : "4.1.4",
		"Place" : "Μεσσήνῃ",
		"Links" : "http://topostext.org/place/372219PMes",
		"Lat" : "37.1779",
		"Lon" : "21.9195",
		"Type" : null,
		"Label" : "Messene (Messenia)",
		"Tags" : "regional|built|polis",
		"Comments" : null
	},
	{
		"BookID" : "4.1.4",
		"Place" : "Φηράς",
		"Links" : "http://topostext.org/place/370221UPhe",
		"Lat" : "37.046",
		"Lon" : "22.113",
		"Type" : null,
		"Label" : "Pherai (Messenia)",
		"Tags" : "built|polisma",
		"Comments" : null
	},
	{
		"BookID" : "4.1.4",
		"Place" : "Φηρὰς",
		"Links" : "http://topostext.org/place/370221UPhe",
		"Lat" : "37.046",
		"Lon" : "22.113",
		"Type" : null,
		"Label" : "Pherai (Messenia)",
		"Tags" : "built|settlement",
		"Comments" : null
	},
	{
		"BookID" : "4.1.5",
		"Place" : "Ἀθηναῖοι",
		"Links" : "http://dare.ht.lu.se/places/10975",
		"Lat" : "37.971687",
		"Lon" : "23.726464",
		"Type" : "settlement",
		"Label" : "Athenae, Athína|Athenae",
		"Tags" : "historical|Athenians|proxy",
		"Comments" : null
	},
	{
		"BookID" : "4.1.5",
		"Place" : "Ἐλευσῖνος",
		"Links" : "http://dare.ht.lu.se/places/21987",
		"Lat" : "38.041096",
		"Lon" : "23.538311",
		"Type" : "sanctuary,settlement",
		"Label" : "Demeter Temple, Elefsina|Eleusis, Elefsina|Demeter, T.|Eleusis",
		"Tags" : "built|hieron",
		"Comments" : null
	},
	{
		"BookID" : "4.1.6",
		"Place" : "Κρητί",
		"Links" : "http://pleiades.stoa.org/places/589748",
		"Lat" : "35.21984439173344",
		"Lon" : "24.995769971494504",
		"Type" : "island",
		"Label" : "Creta (island)",
		"Tags" : "proxy",
		"Comments" : null
	},
	{
		"BookID" : "4.1.7",
		"Place" : "Ἀθηναῖος",
		"Links" : "http://dare.ht.lu.se/places/10975",
		"Lat" : "37.971687",
		"Lon" : "23.726464",
		"Type" : "settlement",
		"Label" : "Athenae, Athína|Athenae",
		"Tags" : "proxy|male",
		"Comments" : null
	},
	{
		"BookID" : "4.1.7",
		"Place" : "Θηβαίοις",
		"Links" : "http://topostext.org/place/383233PThe",
		"Lat" : "38.3191",
		"Lon" : "23.3178",
		"Type" : null,
		"Label" : "Thebes (Boeotia)",
		"Tags" : "proxy|Thebans",
		"Comments" : null
	},
	{
		"BookID" : "4.1.8",
		"Place" : "Ἀνδανίῃ",
		"Links" : "http://dare.ht.lu.se/places/27403",
		"Lat" : "37.26217",
		"Lon" : "21.938099",
		"Type" : "settlement",
		"Label" : "Andania, Kallirhoe|Andania",
		"Tags" : "built|hieron",
		"Comments" : null
	},
	{
		"BookID" : "4.1.8",
		"Place" : "Ἀτθίδος",
		"Links" : "http://pleiades.stoa.org/places/579888",
		"Lat" : "38.051998833333336",
		"Lon" : "23.818991099999998",
		"Type" : "region",
		"Label" : "Attica",
		"Tags" : null,
		"Comments" : "adjective"
	},
	{
		"BookID" : "4.1.9",
		"Place" : "Ἀνδανίᾳ",
		"Links" : "http://topostext.org/place/373219UAnd",
		"Lat" : "37.274",
		"Lon" : "21.936",
		"Type" : null,
		"Label" : "Andania (Messenia)",
		"Tags" : "hieron|built|polis",
		"Comments" : null
	},
	{
		"BookID" : "4.1.9",
		"Place" : "ἔνθα",
		"Links" : "http://topostext.org/place/373219UAnd",
		"Lat" : "37.274",
		"Lon" : "21.936",
		"Type" : null,
		"Label" : "Andania (Messenia)",
		"Tags" : "entha",
		"Comments" : null
	},
	{
		"BookID" : "4.2.2",
		"Place" : "Καρνάσιον",
		"Links" : "http://dare.ht.lu.se/places/45324",
		"Lat" : "39.624618",
		"Lon" : "21.947804",
		"Type" : null,
		"Label" : "Oichalia, Kastro Ichalias",
		"Tags" : "built|chôra",
		"Comments" : "Carnasium"
	},
	{
		"BookID" : "4.2.2",
		"Place" : "Μεσσήνιοί",
		"Links" : "http://dare.ht.lu.se/places/21909",
		"Lat" : "37.175491",
		"Lon" : "21.920439",
		"Type" : "sanctuary,settlement,fort",
		"Label" : "Messene, Mavromati|Ithome, Ithomi|Sanctuary of Zeus Ithomatas, Mavromati|Ithome/Thamiai|Messene",
		"Tags" : "historical|Messenians|proxy",
		"Comments" : null
	},
	{
		"BookID" : "4.2.2",
		"Place" : "Οἰχαλίαν",
		"Links" : "http://dare.ht.lu.se/places/45324",
		"Lat" : "39.624618",
		"Lon" : "21.947804",
		"Type" : null,
		"Label" : "Oichalia, Kastro Ichalias",
		"Tags" : "regional|built|polis",
		"Comments" : null
	},
	{
		"BookID" : "4.2.2",
		"Place" : "Οἰχαλίαν",
		"Links" : "http://dare.ht.lu.se/places/45324",
		"Lat" : "39.624618",
		"Lon" : "21.947804",
		"Type" : null,
		"Label" : "Oichalia, Kastro Ichalias",
		"Tags" : "built|polis",
		"Comments" : null
	},
	{
		"BookID" : "4.2.3",
		"Place" : "Ἑλλάδι",
		"Links" : "http://pleiades.stoa.org/places/1001896",
		"Lat" : "37.5",
		"Lon" : "22.5",
		"Type" : "province",
		"Label" : "Hellas",
		"Tags" : "regional",
		"Comments" : null
	},
	{
		"BookID" : "4.2.3",
		"Place" : "Ἐρετρικῆς",
		"Links" : "http://topostext.org/place/384238PEre",
		"Lat" : "38.3982",
		"Lon" : "23.7905",
		"Type" : null,
		"Label" : "Eretria (Euboea)",
		"Tags" : "regional",
		"Comments" : null
	},
	{
		"BookID" : "4.2.3",
		"Place" : "Εὐβοεῖς",
		"Links" : "http://dare.ht.lu.se/places/41413",
		"Lat" : "38.53",
		"Lon" : "23.87",
		"Type" : "island",
		"Label" : "Euboea Ins./Euboia, Euboia|Euboea (island)",
		"Tags" : "historical|Euboeans|proxy",
		"Comments" : null
	},
	{
		"BookID" : "4.2.3",
		"Place" : "Εὐβοέων",
		"Links" : "http://dare.ht.lu.se/places/41413",
		"Lat" : "38.53",
		"Lon" : "23.87",
		"Type" : "island",
		"Label" : "Euboea Ins./Euboia, Euboia|Euboea (island)",
		"Tags" : "historical|Euboeans|proxy",
		"Comments" : null
	},
	{
		"BookID" : "4.2.3",
		"Place" : "Θεσσαλοὶ",
		"Links" : "http://pleiades.stoa.org/places/1332",
		"Lat" : "39.6",
		"Lon" : "22.2",
		"Type" : "region",
		"Label" : "Thessalia",
		"Tags" : "historical|Thessalians|proxy",
		"Comments" : null
	},
	{
		"BookID" : "4.2.3",
		"Place" : "Μεσσήνιοι",
		"Links" : "http://topostext.org/place/372218RMes",
		"Lat" : "37.2",
		"Lon" : "21.8",
		"Type" : null,
		"Label" : "Messenia region (Messenia)",
		"Tags" : "historical|Messenians|proxy",
		"Comments" : null
	},
	{
		"BookID" : "4.2.3",
		"Place" : "Μιλήσιος",
		"Links" : "http://dare.ht.lu.se/places/21166",
		"Lat" : "37.5292362",
		"Lon" : "27.2774885",
		"Type" : "theatre,settlement,port",
		"Label" : "Miletos/Miletus, Milet, Balat, Didim|Miletus",
		"Tags" : "proxy|male",
		"Comments" : null
	},
	{
		"BookID" : "4.2.3",
		"Place" : "Οἰχαλίαν",
		"Links" : "http://dare.ht.lu.se/places/45324",
		"Lat" : "39.624618",
		"Lon" : "21.947804",
		"Type" : null,
		"Label" : "Oichalia, Kastro Ichalias",
		"Tags" : "regional|built|polis",
		"Comments" : null
	},
	{
		"BookID" : "4.2.4",
		"Place" : "Ἀργολίδι",
		"Links" : "http://pleiades.stoa.org/places/570104",
		"Lat" : "37.6566371145232",
		"Lon" : "22.92059272180843",
		"Type" : "region",
		"Label" : "Argolis",
		"Tags" : "work|Pausanias|xref",
		"Comments" : "Book about Argolis (book 2)"
	},
	{
		"BookID" : "4.2.4",
		"Place" : "Λακωνικῇ",
		"Links" : "http://pleiades.stoa.org/places/570406",
		"Lat" : "37.07624042080912",
		"Lon" : "22.46082645177671",
		"Type" : "region",
		"Label" : "Lacedaemon/Laconia",
		"Tags" : "work|Pausanias|xref",
		"Comments" : "Book about Laconia (book 3)"
	},
	{
		"BookID" : "4.2.4",
		"Place" : "Μεσσηνίων",
		"Links" : "http://dare.ht.lu.se/places/21909",
		"Lat" : "37.175491",
		"Lon" : "21.920439",
		"Type" : "sanctuary,settlement,fort",
		"Label" : "Messene, Mavromati|Ithome, Ithomi|Sanctuary of Zeus Ithomatas, Mavromati|Ithome/Thamiai|Messene",
		"Tags" : "historical|Messenians|proxy",
		"Comments" : null
	},
	{
		"BookID" : "4.2.5",
		"Place" : "Ἰωλκοῦ",
		"Links" : "http://dare.ht.lu.se/places/29365",
		"Lat" : "39.366305",
		"Lon" : "22.96886",
		"Type" : "settlement",
		"Label" : "Iolkos, Volos Kastro|Iolkos",
		"Tags" : "built|settlement",
		"Comments" : null
	},
	{
		"BookID" : "4.2.5",
		"Place" : "Μεσσηνίᾳ",
		"Links" : "http://topostext.org/place/372218RMes",
		"Lat" : "37.2",
		"Lon" : "21.8",
		"Type" : null,
		"Label" : "Messenia region (Messenia)",
		"Tags" : "regional",
		"Comments" : null
	},
	{
		"BookID" : "4.2.5",
		"Place" : "Πύλος",
		"Links" : "http://dare.ht.lu.se/places/23297",
		"Lat" : "36.91198",
		"Lon" : "21.69583",
		"Type" : "settlement",
		"Label" : "Pylos/Koryphasion, Pylos|Pylos/Koryphasion",
		"Tags" : "built|polis",
		"Comments" : null
	},
	{
		"BookID" : "4.2.6",
		"Place" : "Ἀθηνῶν",
		"Links" : "http://dare.ht.lu.se/places/10975",
		"Lat" : "37.971687",
		"Lon" : "23.726464",
		"Type" : "settlement",
		"Label" : "Athenae, Athína|Athenae",
		"Tags" : "built|polis",
		"Comments" : null
	},
	{
		"BookID" : "4.2.6",
		"Place" : "Ἀνδανίαν",
		"Links" : "http://topostext.org/place/373219UAnd",
		"Lat" : "37.274",
		"Lon" : "21.936",
		"Type" : null,
		"Label" : "Andania (Messenia)",
		"Tags" : null,
		"Comments" : null
	},
	{
		"BookID" : "4.2.7",
		"Place" : "Ἕλληνες",
		"Links" : "http://pleiades.stoa.org/places/1001896",
		"Lat" : "37.5",
		"Lon" : "22.5",
		"Type" : "province",
		"Label" : "Hellas",
		"Tags" : "historical|proxy|Q3723502",
		"Comments" : null
	},
	{
		"BookID" : "4.2.7",
		"Place" : "Τρῳάδα",
		"Links" : "http://pleiades.stoa.org/places/550944",
		"Lat" : "39.90055031028392",
		"Lon" : "26.331240828799153",
		"Type" : "region",
		"Label" : "Troas",
		"Tags" : null,
		"Comments" : null
	},
	{
		"BookID" : "4.3.1",
		"Place" : "Μεσσηνίων",
		"Links" : "http://dare.ht.lu.se/places/21909",
		"Lat" : "37.175491",
		"Lon" : "21.920439",
		"Type" : "sanctuary,settlement,fort",
		"Label" : "Messene, Mavromati|Ithome, Ithomi|Sanctuary of Zeus Ithomatas, Mavromati|Ithome/Thamiai|Messene",
		"Tags" : "historical|Messenians|proxy",
		"Comments" : null
	},
	{
		"BookID" : "4.3.2",
		"Place" : "Γερηνίᾳ",
		"Links" : "http://topostext.org/place/369222UGer",
		"Lat" : "36.934",
		"Lon" : "22.195",
		"Type" : null,
		"Label" : "Gerenia? (Messenia)",
		"Tags" : "built|settlement",
		"Comments" : null
	},
	{
		"BookID" : "4.3.2",
		"Place" : "Ἴλιον",
		"Links" : "http://dare.ht.lu.se/places/21153",
		"Lat" : "39.9577",
		"Lon" : "26.23873",
		"Type" : "settlement",
		"Label" : "Ilium/Troia, Hisarlık|Ilium/Troia",
		"Tags" : "built|settlement|proxy",
		"Comments" : "proxy for war"
	},
	{
		"BookID" : "4.3.2",
		"Place" : "Μεσσηνίᾳ",
		"Links" : "http://topostext.org/place/372218RMes",
		"Lat" : "37.2",
		"Lon" : "21.8",
		"Type" : null,
		"Label" : "Messenia region (Messenia)",
		"Tags" : "regional",
		"Comments" : null
	},
	{
		"BookID" : "4.3.2",
		"Place" : "Μεσσηνίους",
		"Links" : "http://topostext.org/place/372219PMes",
		"Lat" : "37.1779",
		"Lon" : "21.9195",
		"Type" : null,
		"Label" : "Messene (Messenia)",
		"Tags" : "historical|person|proxy",
		"Comments" : null
	},
	{
		"BookID" : "4.3.2",
		"Place" : "Φαραῖς",
		"Links" : "http://topostext.org/place/370221UPhe",
		"Lat" : "37.046",
		"Lon" : "22.113",
		"Type" : null,
		"Label" : "Pherai (Messenia)",
		"Tags" : "built|polis",
		"Comments" : null
	},
	{
		"BookID" : "4.3.3",
		"Place" : "Ἄργος",
		"Links" : "http://dare.ht.lu.se/places/21779",
		"Lat" : "37.631561",
		"Lon" : "22.719464",
		"Type" : "settlement",
		"Label" : "Argos, Argos|Argos",
		"Tags" : "built|polis",
		"Comments" : null
	},
	{
		"BookID" : "4.3.3",
		"Place" : "Ἴλιον",
		"Links" : "http://dare.ht.lu.se/places/21153",
		"Lat" : "39.9577",
		"Lon" : "26.23873",
		"Type" : "settlement",
		"Label" : "Ilium/Troia, Hisarlık|Ilium/Troia",
		"Tags" : "built|settlement|proxy",
		"Comments" : "proxy for war"
	},
	{
		"BookID" : "4.3.3",
		"Place" : "Μεσσηνίαν",
		"Links" : "http://topostext.org/place/372218RMes",
		"Lat" : "37.2",
		"Lon" : "21.8",
		"Type" : null,
		"Label" : "Messenia region (Messenia)",
		"Tags" : "regional|gê",
		"Comments" : null
	},
	{
		"BookID" : "4.3.3",
		"Place" : "Μεσσηνίας",
		"Links" : "http://topostext.org/place/372218RMes",
		"Lat" : "37.2",
		"Lon" : "21.8",
		"Type" : null,
		"Label" : "Messenia region (Messenia)",
		"Tags" : "regional",
		"Comments" : null
	},
	{
		"BookID" : "4.3.4",
		"Place" : "Θηβαῖός",
		"Links" : "http://dare.ht.lu.se/places/21952",
		"Lat" : "38.318092",
		"Lon" : "23.255096",
		"Type" : "sanctuary,settlement",
		"Label" : "Kabeirion, Kabeirion|Thebai, Thiva|Kabeirion|Thebai/Thebae",
		"Tags" : "proxy",
		"Comments" : null
	},
	{
		"BookID" : "4.3.4",
		"Place" : "Μεσσηνίαν",
		"Links" : "http://topostext.org/place/372218RMes",
		"Lat" : "37.2",
		"Lon" : "21.8",
		"Type" : null,
		"Label" : "Messenia region (Messenia)",
		"Tags" : "regional",
		"Comments" : null
	},
	{
		"BookID" : "4.3.5",
		"Place" : "Μεσσηνίαν",
		"Links" : "http://topostext.org/place/372218RMes",
		"Lat" : "37.2",
		"Lon" : "21.8",
		"Type" : null,
		"Label" : "Messenia region (Messenia)",
		"Tags" : "regional",
		"Comments" : null
	},
	{
		"BookID" : "4.3.6",
		"Place" : "Ἀρκάδων",
		"Links" : "http://pleiades.stoa.org/places/570102",
		"Lat" : "37.567419268449626",
		"Lon" : "22.165323097346306",
		"Type" : "region",
		"Label" : "Arcadia",
		"Tags" : "historical|Arcadians|proxy",
		"Comments" : null
	},
	{
		"BookID" : "4.3.6",
		"Place" : "Ἰωλκοῦ",
		"Links" : "http://dare.ht.lu.se/places/29365",
		"Lat" : "39.366305",
		"Lon" : "22.96886",
		"Type" : "settlement",
		"Label" : "Iolkos, Volos Kastro|Iolkos",
		"Tags" : "built|settlement",
		"Comments" : null
	},
	{
		"BookID" : "4.3.6",
		"Place" : "Μεσσηνίων",
		"Links" : "http://dare.ht.lu.se/places/21909",
		"Lat" : "37.175491",
		"Lon" : "21.920439",
		"Type" : "sanctuary,settlement,fort",
		"Label" : "Messene, Mavromati|Ithome, Ithomi|Sanctuary of Zeus Ithomatas, Mavromati|Ithome/Thamiai|Messene",
		"Tags" : "historical|Messenians|proxy",
		"Comments" : null
	},
	{
		"BookID" : "4.3.7",
		"Place" : "Ἀνδανίᾳ",
		"Links" : "http://topostext.org/place/373219UAnd",
		"Lat" : "37.274",
		"Lon" : "21.936",
		"Type" : null,
		"Label" : "Andania (Messenia)",
		"Tags" : "built|polis",
		"Comments" : null
	},
	{
		"BookID" : "4.3.7",
		"Place" : "Πύλῳ",
		"Links" : "http://dare.ht.lu.se/places/23297",
		"Lat" : "36.91198",
		"Lon" : "21.69583",
		"Type" : "settlement",
		"Label" : "Pylos/Koryphasion, Pylos|Pylos/Koryphasion",
		"Tags" : "built|polis",
		"Comments" : null
	},
	{
		"BookID" : "4.3.7",
		"Place" : "Στενυκλήρῳ",
		"Links" : "http://pleiades.stoa.org/places/570690",
		"Lat" : "37.25",
		"Lon" : "21.75",
		"Type" : "unknown",
		"Label" : "Stenykleros",
		"Tags" : "regional|built|polis",
		"Comments" : null
	},
	{
		"BookID" : "4.3.7",
		"Place" : "Στενυκλήρῳ",
		"Links" : "http://pleiades.stoa.org/places/570690",
		"Lat" : "37.25",
		"Lon" : "21.75",
		"Type" : "unknown",
		"Label" : "Stenykleros",
		"Tags" : "built|polis",
		"Comments" : null
	},
	{
		"BookID" : "4.3.8",
		"Place" : "Ἀρκάδες",
		"Links" : "http://pleiades.stoa.org/places/570102",
		"Lat" : "37.567419268449626",
		"Lon" : "22.165323097346306",
		"Type" : "region",
		"Label" : "Arcadia",
		"Tags" : "historical|Arcadians|proxy",
		"Comments" : null
	},
	{
		"BookID" : "4.3.8",
		"Place" : "Μεσσήνην",
		"Links" : "http://dare.ht.lu.se/places/21909",
		"Lat" : "37.175491",
		"Lon" : "21.920439",
		"Type" : "sanctuary,settlement,fort",
		"Label" : "Messene, Mavromati|Ithome, Ithomi|Sanctuary of Zeus Ithomatas, Mavromati|Ithome/Thamiai|Messene",
		"Tags" : "built|polis",
		"Comments" : null
	},
	{
		"BookID" : "4.3.8",
		"Place" : "Μεσσηνίων",
		"Links" : "http://dare.ht.lu.se/places/21909",
		"Lat" : "37.175491",
		"Lon" : "21.920439",
		"Type" : "sanctuary,settlement,fort",
		"Label" : "Messene, Mavromati|Ithome, Ithomi|Sanctuary of Zeus Ithomatas, Mavromati|Ithome/Thamiai|Messene",
		"Tags" : "historical|Messenians|proxy",
		"Comments" : null
	},
	{
		"BookID" : "4.3.9",
		"Place" : "Γερηνίᾳ",
		"Links" : "http://topostext.org/place/369222UGer",
		"Lat" : "36.934",
		"Lon" : "22.195",
		"Type" : null,
		"Label" : "Gerenia? (Messenia)",
		"Tags" : "built|settlement",
		"Comments" : null
	},
	{
		"BookID" : "4.3.9",
		"Place" : "Ἰθώμης",
		"Links" : "http://dare.ht.lu.se/places/43552",
		"Lat" : "37.1857343",
		"Lon" : "21.9249021",
		"Type" : "mountain",
		"Label" : "Ithome Mons, Ithome|Ithome M.",
		"Tags" : "physical|mountain",
		"Comments" : null
	},
	{
		"BookID" : "4.3.9",
		"Place" : "κορυφῇ",
		"Links" : "http://dare.ht.lu.se/places/43552",
		"Lat" : "37.1857343",
		"Lon" : "21.9249021",
		"Type" : "mountain",
		"Label" : "Ithome Mons, Ithome|Ithome M.",
		"Tags" : "physical|koruphê",
		"Comments" : null
	},
	{
		"BookID" : "4.3.10",
		"Place" : "Ἀνδανίᾳ",
		"Links" : "http://topostext.org/place/373219UAnd",
		"Lat" : "37.274",
		"Lon" : "21.936",
		"Type" : null,
		"Label" : "Andania (Messenia)",
		"Tags" : "built|polis",
		"Comments" : null
	},
	{
		"BookID" : "4.3.10",
		"Place" : "Μεσσηνίας",
		"Links" : "http://topostext.org/place/372218RMes",
		"Lat" : "37.2",
		"Lon" : "21.8",
		"Type" : null,
		"Label" : "Messenia region (Messenia)",
		"Tags" : "regional",
		"Comments" : null
	},
	{
		"BookID" : "4.3.10",
		"Place" : "Μοθώνῃ",
		"Links" : "http://dare.ht.lu.se/places/21910",
		"Lat" : "36.817",
		"Lon" : "21.705",
		"Type" : "settlement",
		"Label" : "Methone/Mothone, Methoni|Methone/Mothone",
		"Tags" : "built|settlement",
		"Comments" : null
	},
	{
		"BookID" : "4.3.10",
		"Place" : "Οἰχαλίᾳ",
		"Links" : "http://topostext.org/place/368228UOic",
		"Lat" : "37.268",
		"Lon" : "21.947",
		"Type" : null,
		"Label" : "Oichalia? (Messenia?)",
		"Tags" : "built|settlement",
		"Comments" : null
	},
	{
		"BookID" : "4.3.10",
		"Place" : "Φαραῖς",
		"Links" : "http://topostext.org/place/370221UPhe",
		"Lat" : "37.046",
		"Lon" : "22.113",
		"Type" : null,
		"Label" : "Pherai (Messenia)",
		"Tags" : "built|polis",
		"Comments" : null
	},
	{
		"BookID" : "4.4.1",
		"Place" : "Δῆλον",
		"Links" : "http://dare.ht.lu.se/places/22862",
		"Lat" : "37.397274",
		"Lon" : "25.268194",
		"Type" : "architecturalcomplex,sanctuary,monument,island,settlement,plaza",
		"Label" : "Delos, Delos|Apollo, Apollo, Delos|Delos Ins., Delos|Sanctuary of Apollo on Delos|Delos (settlement)|Delos (island)",
		"Tags" : "built|hieron",
		"Comments" : null
	},
	{
		"BookID" : "4.4.1",
		"Place" : "Λακεδαιμονίους",
		"Links" : "http://pleiades.stoa.org/places/570406",
		"Lat" : "37.07624042080912",
		"Lon" : "22.46082645177671",
		"Type" : "region",
		"Label" : "Lacedaemon/Laconia",
		"Tags" : "historical|Lacedaemonians|proxy",
		"Comments" : null
	},
	{
		"BookID" : "4.4.1",
		"Place" : "Μεσσήνιοι",
		"Links" : "http://topostext.org/place/372218RMes",
		"Lat" : "37.2",
		"Lon" : "21.8",
		"Type" : null,
		"Label" : "Messenia region (Messenia)",
		"Tags" : "historical|Messenians|proxy",
		"Comments" : null
	},
	{
		"BookID" : "4.4.2",
		"Place" : "ἱερὸν",
		"Links" : "http://topostext.org/place/371222SLim",
		"Lat" : "37.1109",
		"Lon" : "22.1714",
		"Type" : null,
		"Label" : "Artemis Limnatis sanct. (Messenia)",
		"Tags" : "built|hieron|Artemis Limnatis",
		"Comments" : null
	},
	{
		"BookID" : "4.4.2",
		"Place" : "Λακεδαιμόνιοι",
		"Links" : "http://topostext.org/place/371224PSpa",
		"Lat" : "37.0821",
		"Lon" : "22.4237",
		"Type" : null,
		"Label" : "Sparta/Lacedaemon (Lakonia)",
		"Tags" : "historical|Lacedaemonians|proxy",
		"Comments" : null
	},
	{
		"BookID" : "4.4.2",
		"Place" : "Λακεδαιμόνιοι",
		"Links" : "http://topostext.org/place/371224PSpa",
		"Lat" : "37.0821",
		"Lon" : "22.4237",
		"Type" : null,
		"Label" : "Sparta/Lacedaemon (Lakonia)",
		"Tags" : "historical|Lacedaemonians|proxy",
		"Comments" : null
	},
	{
		"BookID" : "4.4.2",
		"Place" : "Μεσσηνίας",
		"Links" : "http://topostext.org/place/372218RMes",
		"Lat" : "37.2",
		"Lon" : "21.8",
		"Type" : null,
		"Label" : "Messenia region (Messenia)",
		"Tags" : "regional",
		"Comments" : null
	},
	{
		"BookID" : "4.4.2",
		"Place" : "Μεσσήνιοι",
		"Links" : "http://topostext.org/place/372218RMes",
		"Lat" : "37.2",
		"Lon" : "21.8",
		"Type" : null,
		"Label" : "Messenia region (Messenia)",
		"Tags" : "historical|Messenians|proxy",
		"Comments" : null
	},
	{
		"BookID" : "4.4.2",
		"Place" : "Μεσσηνίων",
		"Links" : "http://dare.ht.lu.se/places/21909",
		"Lat" : "37.175491",
		"Lon" : "21.920439",
		"Type" : "sanctuary,settlement,fort",
		"Label" : "Messene, Mavromati|Ithome, Ithomi|Sanctuary of Zeus Ithomatas, Mavromati|Ithome/Thamiai|Messene",
		"Tags" : "historical|Messenians|proxy",
		"Comments" : null
	},
	{
		"BookID" : "4.4.3",
		"Place" : "Λακεδαιμονίους",
		"Links" : "http://pleiades.stoa.org/places/570406",
		"Lat" : "37.07624042080912",
		"Lon" : "22.46082645177671",
		"Type" : "region",
		"Label" : "Lacedaemon/Laconia",
		"Tags" : "historical|Lacedaemonians|proxy",
		"Comments" : null
	},
	{
		"BookID" : "4.4.3",
		"Place" : "Μεσσήνῃ",
		"Links" : "http://topostext.org/place/372219PMes",
		"Lat" : "37.1779",
		"Lon" : "21.9195",
		"Type" : null,
		"Label" : "Messene (Messenia)",
		"Tags" : "built|polis",
		"Comments" : null
	},
	{
		"BookID" : "4.4.3",
		"Place" : "Μεσσηνίας",
		"Links" : "http://topostext.org/place/372218RMes",
		"Lat" : "37.2",
		"Lon" : "21.8",
		"Type" : null,
		"Label" : "Messenia region (Messenia)",
		"Tags" : "regional",
		"Comments" : null
	},
	{
		"BookID" : "4.4.3",
		"Place" : "Μεσσήνιοι",
		"Links" : "http://topostext.org/place/372218RMes",
		"Lat" : "37.2",
		"Lon" : "21.8",
		"Type" : null,
		"Label" : "Messenia region (Messenia)",
		"Tags" : "historical|Messenians|proxy",
		"Comments" : null
	},
	{
		"BookID" : "4.4.3",
		"Place" : "Μεσσηνίοις",
		"Links" : "http://topostext.org/place/372218RMes",
		"Lat" : "37.2",
		"Lon" : "21.8",
		"Type" : null,
		"Label" : "Messenia region (Messenia)",
		"Tags" : "historical|Messenians|proxy",
		"Comments" : null
	},
	{
		"BookID" : "4.4.3",
		"Place" : "Μεσσηνίους",
		"Links" : "http://topostext.org/place/372219PMes",
		"Lat" : "37.1779",
		"Lon" : "21.9195",
		"Type" : null,
		"Label" : "Messene (Messenia)",
		"Tags" : "historical|person|proxy",
		"Comments" : null
	},
	{
		"BookID" : "4.4.3",
		"Place" : "Σπαρτιατῶν",
		"Links" : "http://dare.ht.lu.se/places/21911",
		"Lat" : "37.08149",
		"Lon" : "22.42454",
		"Type" : "theatre,temple,settlement,temple-2",
		"Label" : "Sparta/Sparte, Sparti|Sparta",
		"Tags" : "historical|Spartans|proxy|Q369194",
		"Comments" : "Spartiates|Spartan youths"
	},
	{
		"BookID" : "4.4.4",
		"Place" : "Λακεδαίμονι",
		"Links" : "http://topostext.org/place/371224PSpa",
		"Lat" : "37.0821",
		"Lon" : "22.4237",
		"Type" : null,
		"Label" : "Sparta/Lacedaemon (Lakonia)",
		"Tags" : "built|polis",
		"Comments" : null
	},
	{
		"BookID" : "4.4.4",
		"Place" : "Λακεδαιμόνιοι",
		"Links" : "http://topostext.org/place/371224PSpa",
		"Lat" : "37.0821",
		"Lon" : "22.4237",
		"Type" : null,
		"Label" : "Sparta/Lacedaemon (Lakonia)",
		"Tags" : "historical|Lacedaemonians|proxy",
		"Comments" : null
	},
	{
		"BookID" : "4.4.4",
		"Place" : "Λακεδαιμονίων",
		"Links" : "http://topostext.org/place/371224PSpa",
		"Lat" : "37.0821",
		"Lon" : "22.4237",
		"Type" : null,
		"Label" : "Sparta/Lacedaemon (Lakonia)",
		"Tags" : "historical|Lacedaemonians|proxy",
		"Comments" : null
	},
	{
		"BookID" : "4.4.4",
		"Place" : "Μεσσηνίων",
		"Links" : "http://dare.ht.lu.se/places/21909",
		"Lat" : "37.175491",
		"Lon" : "21.920439",
		"Type" : "sanctuary,settlement,fort",
		"Label" : "Messene, Mavromati|Ithome, Ithomi|Sanctuary of Zeus Ithomatas, Mavromati|Ithome/Thamiai|Messene",
		"Tags" : "historical|Messenians|proxy",
		"Comments" : null
	},
	{
		"BookID" : "4.4.4",
		"Place" : "Μεσσηνίων",
		"Links" : "http://dare.ht.lu.se/places/21909",
		"Lat" : "37.175491",
		"Lon" : "21.920439",
		"Type" : "sanctuary,settlement,fort",
		"Label" : "Messene, Mavromati|Ithome, Ithomi|Sanctuary of Zeus Ithomatas, Mavromati|Ithome/Thamiai|Messene",
		"Tags" : "historical|Messenians|proxy",
		"Comments" : null
	},
	{
		"BookID" : "4.4.5",
		"Place" : "Ἠλεῖοι",
		"Links" : "http://dare.ht.lu.se/places/21944",
		"Lat" : "37.89131",
		"Lon" : "21.37493",
		"Type" : "theatre,settlement",
		"Label" : "Elis, Elis|Elis",
		"Tags" : "historical|Eleians|proxy",
		"Comments" : null
	},
	{
		"BookID" : "4.4.5",
		"Place" : "Μεσσήνιος",
		"Links" : "http://topostext.org/place/372219PMes",
		"Lat" : "37.1779",
		"Lon" : "21.9195",
		"Type" : null,
		"Label" : "Messene (Messenia)",
		"Tags" : "proxy|male",
		"Comments" : null
	},
	{
		"BookID" : "4.4.5",
		"Place" : "Ὀλυμπίασιν",
		"Links" : "http://dare.ht.lu.se/places/21945",
		"Lat" : "37.637849",
		"Lon" : "21.630126",
		"Type" : "palaistra,sanctuary,temple-2",
		"Label" : "Olympia, Archaia Olympia|Olympia",
		"Tags" : "proxy",
		"Comments" : "Olympic games"
	},
	{
		"BookID" : "4.4.5",
		"Place" : "Σπαρτιάτῃ",
		"Links" : "http://dare.ht.lu.se/places/21911",
		"Lat" : "37.08149",
		"Lon" : "22.42454",
		"Type" : "theatre,temple,settlement,temple-2",
		"Label" : "Sparta/Sparte, Sparti|Sparta",
		"Tags" : "proxy",
		"Comments" : null
	},
	{
		"BookID" : "4.4.6",
		"Place" : "Λακωνικὴν",
		"Links" : "http://pleiades.stoa.org/places/570406",
		"Lat" : "37.07624042080912",
		"Lon" : "22.46082645177671",
		"Type" : "region",
		"Label" : "Lacedaemon/Laconia",
		"Tags" : "regional|chôra",
		"Comments" : null
	},
	{
		"BookID" : "4.4.7",
		"Place" : "Λακωνικῇ",
		"Links" : "http://pleiades.stoa.org/places/570406",
		"Lat" : "37.07624042080912",
		"Lon" : "22.46082645177671",
		"Type" : "region",
		"Label" : "Lacedaemon/Laconia",
		"Tags" : "regional",
		"Comments" : null
	},
	{
		"BookID" : "4.4.8",
		"Place" : "Λακεδαίμονα",
		"Links" : "http://topostext.org/place/371224PSpa",
		"Lat" : "37.0821",
		"Lon" : "22.4237",
		"Type" : null,
		"Label" : "Sparta/Lacedaemon (Lakonia)",
		"Tags" : "built|polis",
		"Comments" : null
	},
	{
		"BookID" : "4.4.8",
		"Place" : "Λακεδαιμονίων",
		"Links" : "http://topostext.org/place/371224PSpa",
		"Lat" : "37.0821",
		"Lon" : "22.4237",
		"Type" : null,
		"Label" : "Sparta/Lacedaemon (Lakonia)",
		"Tags" : "historical|Lacedaemonians|proxy",
		"Comments" : null
	},
	{
		"BookID" : "4.4.8",
		"Place" : "Λακεδαιμονίων",
		"Links" : "http://topostext.org/place/371224PSpa",
		"Lat" : "37.0821",
		"Lon" : "22.4237",
		"Type" : null,
		"Label" : "Sparta/Lacedaemon (Lakonia)",
		"Tags" : "historical|Lacedaemonians|proxy",
		"Comments" : null
	},
	{
		"BookID" : "4.5.1",
		"Place" : "Λακεδαιμόνιοι",
		"Links" : "http://topostext.org/place/371224PSpa",
		"Lat" : "37.0821",
		"Lon" : "22.4237",
		"Type" : null,
		"Label" : "Sparta/Lacedaemon (Lakonia)",
		"Tags" : "historical|Lacedaemonians|proxy",
		"Comments" : null
	},
	{
		"BookID" : "4.5.1",
		"Place" : "Μεσσήνιοι",
		"Links" : "http://topostext.org/place/372218RMes",
		"Lat" : "37.2",
		"Lon" : "21.8",
		"Type" : null,
		"Label" : "Messenia region (Messenia)",
		"Tags" : "historical|Messenians|proxy",
		"Comments" : null
	},
	{
		"BookID" : "4.5.2",
		"Place" : "Ἀθήνῃσι",
		"Links" : "http://dare.ht.lu.se/places/10975",
		"Lat" : "37.971687",
		"Lon" : "23.726464",
		"Type" : "settlement",
		"Label" : "Athenae, Athína|Athenae",
		"Tags" : "built|polis",
		"Comments" : null
	},
	{
		"BookID" : "4.5.2",
		"Place" : "Ἀργείοις",
		"Links" : "http://dare.ht.lu.se/places/21779",
		"Lat" : "37.631561",
		"Lon" : "22.719464",
		"Type" : "settlement",
		"Label" : "Argos, Argos|Argos",
		"Tags" : "historical|Argives|proxy",
		"Comments" : null
	},
	{
		"BookID" : "4.5.2",
		"Place" : "Ἀρείῳ πάγῳ",
		"Links" : "http://topostext.org/binder/JB0361",
		"Lat" : "37.9724",
		"Lon" : "23.7226",
		"Type" : null,
		"Label" : "Areopagus Council location",
		"Tags" : "built|dikastêrion",
		"Comments" : null
	},
	{
		"BookID" : "4.5.2",
		"Place" : "Λακεδαιμονίοις",
		"Links" : "http://topostext.org/place/371224PSpa",
		"Lat" : "37.0821",
		"Lon" : "22.4237",
		"Type" : null,
		"Label" : "Sparta/Lacedaemon (Lakonia)",
		"Tags" : "historical|Lacedaemonians|proxy",
		"Comments" : null
	},
	{
		"BookID" : "4.5.3",
		"Place" : "Ἀργείων",
		"Links" : "http://dare.ht.lu.se/places/21779",
		"Lat" : "37.631561",
		"Lon" : "22.719464",
		"Type" : "settlement",
		"Label" : "Argos, Argos|Argos",
		"Tags" : "historical|Argives|proxy",
		"Comments" : null
	},
	{
		"BookID" : "4.5.3",
		"Place" : "Ἀρκάδων",
		"Links" : "http://pleiades.stoa.org/places/570102",
		"Lat" : "37.567419268449626",
		"Lon" : "22.165323097346306",
		"Type" : "region",
		"Label" : "Arcadia",
		"Tags" : "historical|Arcadians|proxy",
		"Comments" : null
	},
	{
		"BookID" : "4.5.3",
		"Place" : "Ἀσίᾳ",
		"Links" : "http://pleiades.stoa.org/places/837",
		"Lat" : "39.64014749138555",
		"Lon" : "31.033254534661616",
		"Type" : "peninsula,region",
		"Label" : "Asia Minor",
		"Tags" : "regional",
		"Comments" : null
	},
	{
		"BookID" : "4.5.3",
		"Place" : "Ἕλληνας",
		"Links" : "http://pleiades.stoa.org/places/1001896",
		"Lat" : "37.5",
		"Lon" : "22.5",
		"Type" : "province",
		"Label" : "Hellas",
		"Tags" : "historical|Hellênes|proxy",
		"Comments" : null
	},
	{
		"BookID" : "4.5.3",
		"Place" : "Καρικῇ",
		"Links" : "http://pleiades.stoa.org/places/1001916",
		"Lat" : "37.5",
		"Lon" : "27.5",
		"Type" : "province",
		"Label" : "Karia",
		"Tags" : "regional|epeiros",
		"Comments" : "continental Karia"
	},
	{
		"BookID" : "4.5.3",
		"Place" : "Λακεδαιμονίους",
		"Links" : "http://pleiades.stoa.org/places/570406",
		"Lat" : "37.07624042080912",
		"Lon" : "22.46082645177671",
		"Type" : "region",
		"Label" : "Lacedaemon/Laconia",
		"Tags" : "historical|Lacedaemonians|proxy",
		"Comments" : null
	},
	{
		"BookID" : "4.5.4",
		"Place" : "Δελφοῖς",
		"Links" : "http://dare.ht.lu.se/places/21949",
		"Lat" : "38.482289",
		"Lon" : "22.501169",
		"Type" : "sanctuary,settlement",
		"Label" : "Delphi/Delphoi, Delphi|Delphi",
		"Tags" : "built|hieron",
		"Comments" : null
	},
	{
		"BookID" : "4.5.4",
		"Place" : "ἱερὸν",
		"Links" : "http://pleiades.stoa.org/places/464482219",
		"Lat" : "38.4823167",
		"Lon" : "22.5012215",
		"Type" : "temple-2",
		"Label" : "Temple of Apollo at Delphi",
		"Tags" : "built|sanctuary",
		"Comments" : null
	},
	{
		"BookID" : "4.5.4",
		"Place" : "Κασσανδρείᾳ",
		"Links" : "http://dare.ht.lu.se/places/22703",
		"Lat" : "40.1937",
		"Lon" : "23.3278",
		"Type" : "settlement",
		"Label" : "Poteidaia/Potidaea/Kassandreia, Nea Potidaia|Poteidaia/Kassandreia",
		"Tags" : "built|polis",
		"Comments" : "Cassandreia"
	},
	{
		"BookID" : "4.5.4",
		"Place" : "Λακεδαιμονίους",
		"Links" : "http://pleiades.stoa.org/places/570406",
		"Lat" : "37.07624042080912",
		"Lon" : "22.46082645177671",
		"Type" : "region",
		"Label" : "Lacedaemon/Laconia",
		"Tags" : "historical|Lacedaemonians|proxy",
		"Comments" : null
	},
	{
		"BookID" : "4.5.4",
		"Place" : "Σπάρτῃ",
		"Links" : "http://dare.ht.lu.se/places/21911",
		"Lat" : "37.08149",
		"Lon" : "22.42454",
		"Type" : "theatre,temple,settlement,temple-2",
		"Label" : "Sparta/Sparte, Sparti|Sparta",
		"Tags" : "built|polis",
		"Comments" : null
	},
	{
		"BookID" : "4.5.4",
		"Place" : "Φωκέων",
		"Links" : "http://pleiades.stoa.org/places/541048",
		"Lat" : "38.25",
		"Lon" : "22.25",
		"Type" : "unknown",
		"Label" : "Phocis",
		"Tags" : "historical|Phocians|proxy",
		"Comments" : null
	},
	{
		"BookID" : "4.5.5",
		"Place" : "Κασσανδρεῖς",
		"Links" : "http://topostext.org/place/402233UPot",
		"Lat" : "40.1937",
		"Lon" : "23.3278",
		"Type" : null,
		"Label" : "Poteidaia/Kassandreia (Chalkidike)",
		"Tags" : "proxy|Cassandrians",
		"Comments" : null
	},
	{
		"BookID" : "4.5.5",
		"Place" : "Μεσσήνιοι",
		"Links" : "http://topostext.org/place/372218RMes",
		"Lat" : "37.2",
		"Lon" : "21.8",
		"Type" : null,
		"Label" : "Messenia region (Messenia)",
		"Tags" : "historical|Messenians|proxy",
		"Comments" : null
	},
	{
		"BookID" : "4.5.5",
		"Place" : "Μεσσηνίων",
		"Links" : "http://dare.ht.lu.se/places/21909",
		"Lat" : "37.175491",
		"Lon" : "21.920439",
		"Type" : "sanctuary,settlement,fort",
		"Label" : "Messene, Mavromati|Ithome, Ithomi|Sanctuary of Zeus Ithomatas, Mavromati|Ithome/Thamiai|Messene",
		"Tags" : "historical|Messenians|proxy",
		"Comments" : null
	},
	{
		"BookID" : "4.5.6",
		"Place" : "Λακεδαιμονίων",
		"Links" : "http://topostext.org/place/371224PSpa",
		"Lat" : "37.0821",
		"Lon" : "22.4237",
		"Type" : null,
		"Label" : "Sparta/Lacedaemon (Lakonia)",
		"Tags" : "historical|Lacedaemonians|proxy",
		"Comments" : null
	},
	{
		"BookID" : "4.5.6",
		"Place" : "Μεσσηνίων",
		"Links" : "http://dare.ht.lu.se/places/21909",
		"Lat" : "37.175491",
		"Lon" : "21.920439",
		"Type" : "sanctuary,settlement,fort",
		"Label" : "Messene, Mavromati|Ithome, Ithomi|Sanctuary of Zeus Ithomatas, Mavromati|Ithome/Thamiai|Messene",
		"Tags" : "historical|Messenians|proxy",
		"Comments" : null
	},
	{
		"BookID" : "4.5.6",
		"Place" : "Σπάρτην",
		"Links" : "http://dare.ht.lu.se/places/21911",
		"Lat" : "37.08149",
		"Lon" : "22.42454",
		"Type" : "theatre,temple,settlement,temple-2",
		"Label" : "Sparta/Sparte, Sparti|Sparta",
		"Tags" : "built|polis",
		"Comments" : null
	},
	{
		"BookID" : "4.5.7",
		"Place" : "Λακεδαιμόνιοι",
		"Links" : "http://topostext.org/place/371224PSpa",
		"Lat" : "37.0821",
		"Lon" : "22.4237",
		"Type" : null,
		"Label" : "Sparta/Lacedaemon (Lakonia)",
		"Tags" : "historical|Lacedaemonians|proxy",
		"Comments" : null
	},
	{
		"BookID" : "4.5.7",
		"Place" : "Σπάρτην",
		"Links" : "http://dare.ht.lu.se/places/21911",
		"Lat" : "37.08149",
		"Lon" : "22.42454",
		"Type" : "theatre,temple,settlement,temple-2",
		"Label" : "Sparta/Sparte, Sparti|Sparta",
		"Tags" : "built|polis",
		"Comments" : null
	},
	{
		"BookID" : "4.5.8",
		"Place" : "Λακεδαιμόνιοι",
		"Links" : "http://topostext.org/place/371224PSpa",
		"Lat" : "37.0821",
		"Lon" : "22.4237",
		"Type" : null,
		"Label" : "Sparta/Lacedaemon (Lakonia)",
		"Tags" : "historical|Lacedaemonians|proxy",
		"Comments" : null
	},
	{
		"BookID" : "4.5.8",
		"Place" : "Μεσσηνίαν",
		"Links" : "http://topostext.org/place/372218RMes",
		"Lat" : "37.2",
		"Lon" : "21.8",
		"Type" : null,
		"Label" : "Messenia region (Messenia)",
		"Tags" : "regional",
		"Comments" : null
	},
	{
		"BookID" : "4.5.8",
		"Place" : "Μεσσηνίοις",
		"Links" : "http://topostext.org/place/372218RMes",
		"Lat" : "37.2",
		"Lon" : "21.8",
		"Type" : null,
		"Label" : "Messenia region (Messenia)",
		"Tags" : "historical|Messenians|proxy",
		"Comments" : null
	},
	{
		"BookID" : "4.5.9",
		"Place" : "Ἄμφεια",
		"Links" : "http://topostext.org/place/373221UAmp",
		"Lat" : "37.2642",
		"Lon" : "22.0751",
		"Type" : null,
		"Label" : "Ampheia (Arkadia)",
		"Tags" : "built|polisma",
		"Comments" : null
	},
	{
		"BookID" : "4.5.9",
		"Place" : "Ἄμφεια",
		"Links" : "http://topostext.org/place/373221UAmp",
		"Lat" : "37.2642",
		"Lon" : "22.0751",
		"Type" : null,
		"Label" : "Ampheia (Arkadia)",
		"Tags" : "built|polisma",
		"Comments" : null
	},
	{
		"BookID" : "4.5.9",
		"Place" : "Ἄμφειαν",
		"Links" : "http://topostext.org/place/373221UAmp",
		"Lat" : "37.2642",
		"Lon" : "22.0751",
		"Type" : null,
		"Label" : "Ampheia (Arkadia)",
		"Tags" : "built|polisma",
		"Comments" : null
	},
	{
		"BookID" : "4.5.9",
		"Place" : "Λακωνικῇ",
		"Links" : "http://pleiades.stoa.org/places/570406",
		"Lat" : "37.07624042080912",
		"Lon" : "22.46082645177671",
		"Type" : "region",
		"Label" : "Lacedaemon/Laconia",
		"Tags" : "regional",
		"Comments" : null
	},
	{
		"BookID" : "4.5.9",
		"Place" : "Μεσσηνίᾳ",
		"Links" : "http://topostext.org/place/372218RMes",
		"Lat" : "37.2",
		"Lon" : "21.8",
		"Type" : null,
		"Label" : "Messenia region (Messenia)",
		"Tags" : "regional",
		"Comments" : null
	},
	{
		"BookID" : "4.5.9",
		"Place" : "Μεσσηνίων",
		"Links" : "http://dare.ht.lu.se/places/21909",
		"Lat" : "37.175491",
		"Lon" : "21.920439",
		"Type" : "sanctuary,settlement,fort",
		"Label" : "Messene, Mavromati|Ithome, Ithomi|Sanctuary of Zeus Ithomatas, Mavromati|Ithome/Thamiai|Messene",
		"Tags" : "historical|Messenians|proxy",
		"Comments" : null
	},
	{
		"BookID" : "4.5.10",
		"Place" : "Ἀθηναίοις",
		"Links" : "http://dare.ht.lu.se/places/10975",
		"Lat" : "37.971687",
		"Lon" : "23.726464",
		"Type" : "settlement",
		"Label" : "Athenae, Athína|Athenae",
		"Tags" : "historical|Athenians|proxy",
		"Comments" : null
	},
	{
		"BookID" : "4.5.10",
		"Place" : "Ἀθήνῃσι",
		"Links" : "http://dare.ht.lu.se/places/10975",
		"Lat" : "37.971687",
		"Lon" : "23.726464",
		"Type" : "settlement",
		"Label" : "Athenae, Athína|Athenae",
		"Tags" : "built|polis",
		"Comments" : null
	},
	{
		"BookID" : "4.5.10",
		"Place" : "Ἀμφείας",
		"Links" : "http://pleiades.stoa.org/places/570071",
		"Lat" : "37.264193",
		"Lon" : "22.075138",
		"Type" : "settlement",
		"Label" : "Ampheia, Gardiki|Ampheia",
		"Tags" : "built|polisma",
		"Comments" : null
	},
	{
		"BookID" : "4.5.10",
		"Place" : "Λακεδαιμόνιοι",
		"Links" : "http://topostext.org/place/371224PSpa",
		"Lat" : "37.0821",
		"Lon" : "22.4237",
		"Type" : null,
		"Label" : "Sparta/Lacedaemon (Lakonia)",
		"Tags" : "historical|Lacedaemonians|proxy",
		"Comments" : null
	},
	{
		"BookID" : "4.5.10",
		"Place" : "Μεσσήνιος",
		"Links" : "http://topostext.org/place/372219PMes",
		"Lat" : "37.1779",
		"Lon" : "21.9195",
		"Type" : null,
		"Label" : "Messene (Messenia)",
		"Tags" : "proxy|male",
		"Comments" : null
	},
	{
		"BookID" : "4.5.10",
		"Place" : "Μεσσηνίους",
		"Links" : "http://topostext.org/place/372219PMes",
		"Lat" : "37.1779",
		"Lon" : "21.9195",
		"Type" : null,
		"Label" : "Messene (Messenia)",
		"Tags" : "historical|person|proxy",
		"Comments" : null
	},
	{
		"BookID" : "4.6.1",
		"Place" : "Βηναῖος",
		"Links" : "http://pleiades.stoa.org/places/589727",
		"Lat" : "35.001887",
		"Lon" : "25.070865",
		"Type" : "settlement",
		"Label" : "Bene?, Kastellos, Panagia|Bene?",
		"Tags" : "proxy|male",
		"Comments" : "Bene in Crete, home of Rhianos"
	},
	{
		"BookID" : "4.6.1",
		"Place" : "Ἰλίῳ",
		"Links" : "http://dare.ht.lu.se/places/21153",
		"Lat" : "39.9577",
		"Lon" : "26.23873",
		"Type" : "settlement",
		"Label" : "Ilium/Troia, Hisarlık|Ilium/Troia",
		"Tags" : "built|polis|proxy",
		"Comments" : "proxy for war"
	},
	{
		"BookID" : "4.6.1",
		"Place" : "Λακεδαιμονίων",
		"Links" : "http://topostext.org/place/371224PSpa",
		"Lat" : "37.0821",
		"Lon" : "22.4237",
		"Type" : null,
		"Label" : "Sparta/Lacedaemon (Lakonia)",
		"Tags" : "historical|Lacedaemonians|proxy",
		"Comments" : null
	},
	{
		"BookID" : "4.6.1",
		"Place" : "Μεσσηνίους",
		"Links" : "http://topostext.org/place/372219PMes",
		"Lat" : "37.1779",
		"Lon" : "21.9195",
		"Type" : null,
		"Label" : "Messene (Messenia)",
		"Tags" : "historical|person|proxy",
		"Comments" : null
	},
	{
		"BookID" : "4.6.1",
		"Place" : "Μεσσηνίων",
		"Links" : "http://dare.ht.lu.se/places/21909",
		"Lat" : "37.175491",
		"Lon" : "21.920439",
		"Type" : "sanctuary,settlement,fort",
		"Label" : "Messene, Mavromati|Ithome, Ithomi|Sanctuary of Zeus Ithomatas, Mavromati|Ithome/Thamiai|Messene",
		"Tags" : "historical|Messenians|proxy",
		"Comments" : null
	},
	{
		"BookID" : "4.6.1",
		"Place" : "Πριηνεὺς",
		"Links" : "http://pleiades.stoa.org/places/599905",
		"Lat" : "37.66",
		"Lon" : "27.298333",
		"Type" : "theatre,settlement,temple-2",
		"Label" : "Priene/‘Lince’?, Güllübahçe|Priene/‘Lince’?",
		"Tags" : "proxy|male",
		"Comments" : null
	},
	{
		"BookID" : "4.6.2",
		"Place" : "Ἀμφείας",
		"Links" : "http://pleiades.stoa.org/places/570071",
		"Lat" : "37.264193",
		"Lon" : "22.075138",
		"Type" : "settlement",
		"Label" : "Ampheia, Gardiki|Ampheia",
		"Tags" : "built|polisma",
		"Comments" : null
	},
	{
		"BookID" : "4.6.2",
		"Place" : "Λακεδαιμονίων",
		"Links" : "http://topostext.org/place/371224PSpa",
		"Lat" : "37.0821",
		"Lon" : "22.4237",
		"Type" : null,
		"Label" : "Sparta/Lacedaemon (Lakonia)",
		"Tags" : "proxy",
		"Comments" : null
	},
	{
		"BookID" : "4.6.2",
		"Place" : "Μεσσηνίοις",
		"Links" : "http://topostext.org/place/372218RMes",
		"Lat" : "37.2",
		"Lon" : "21.8",
		"Type" : null,
		"Label" : "Messenia region (Messenia)",
		"Tags" : "historical|Messenians|proxy",
		"Comments" : null
	},
	{
		"BookID" : "4.6.3",
		"Place" : "Μεσσήνης",
		"Links" : "http://dare.ht.lu.se/places/21909",
		"Lat" : "37.175491",
		"Lon" : "21.920439",
		"Type" : "sanctuary,settlement,fort",
		"Label" : "Messene, Mavromati|Ithome, Ithomi|Sanctuary of Zeus Ithomatas, Mavromati|Ithome/Thamiai|Messene",
		"Tags" : "built|polis",
		"Comments" : null
	},
	{
		"BookID" : "4.6.3",
		"Place" : "Πριηνεὺς",
		"Links" : "http://pleiades.stoa.org/places/599905",
		"Lat" : "37.66",
		"Lon" : "27.298333",
		"Type" : "theatre,settlement,temple-2",
		"Label" : "Priene/‘Lince’?, Güllübahçe|Priene/‘Lince’?",
		"Tags" : "proxy|male|Q3038231",
		"Comments" : "Myron of Priene"
	},
	{
		"BookID" : "4.6.4",
		"Place" : "Λακεδαιμονίων",
		"Links" : "http://topostext.org/place/371224PSpa",
		"Lat" : "37.0821",
		"Lon" : "22.4237",
		"Type" : null,
		"Label" : "Sparta/Lacedaemon (Lakonia)",
		"Tags" : "historical|Lacedaemonians|proxy",
		"Comments" : null
	},
	{
		"BookID" : "4.6.4",
		"Place" : "Μεσσηνίᾳ",
		"Links" : "http://topostext.org/place/372218RMes",
		"Lat" : "37.2",
		"Lon" : "21.8",
		"Type" : null,
		"Label" : "Messenia region (Messenia)",
		"Tags" : "regional",
		"Comments" : null
	},
	{
		"BookID" : "4.6.5",
		"Place" : "Μεσσήνην",
		"Links" : "http://dare.ht.lu.se/places/21909",
		"Lat" : "37.175491",
		"Lon" : "21.920439",
		"Type" : "sanctuary,settlement,fort",
		"Label" : "Messene, Mavromati|Ithome, Ithomi|Sanctuary of Zeus Ithomatas, Mavromati|Ithome/Thamiai|Messene",
		"Tags" : "built|polis",
		"Comments" : null
	},
	{
		"BookID" : "4.6.6",
		"Place" : "Ἄμφειαν",
		"Links" : "http://topostext.org/place/373221UAmp",
		"Lat" : "37.2642",
		"Lon" : "22.0751",
		"Type" : null,
		"Label" : "Ampheia (Arkadia)",
		"Tags" : "built|polisma",
		"Comments" : null
	},
	{
		"BookID" : "4.6.6",
		"Place" : "Ἀμφείας",
		"Links" : "http://pleiades.stoa.org/places/570071",
		"Lat" : "37.264193",
		"Lon" : "22.075138",
		"Type" : "settlement",
		"Label" : "Ampheia, Gardiki|Ampheia",
		"Tags" : "built|polisma",
		"Comments" : null
	},
	{
		"BookID" : "4.6.6",
		"Place" : "Λακεδαιμονίων",
		"Links" : "http://topostext.org/place/371224PSpa",
		"Lat" : "37.0821",
		"Lon" : "22.4237",
		"Type" : null,
		"Label" : "Sparta/Lacedaemon (Lakonia)",
		"Tags" : "historical|Lacedaemonians|proxy",
		"Comments" : null
	},
	{
		"BookID" : "4.6.6",
		"Place" : "Μεσσήνιοι",
		"Links" : "http://topostext.org/place/372218RMes",
		"Lat" : "37.2",
		"Lon" : "21.8",
		"Type" : null,
		"Label" : "Messenia region (Messenia)",
		"Tags" : "historical|Messenians|proxy",
		"Comments" : null
	},
	{
		"BookID" : "4.6.6",
		"Place" : "Στενύκληρον",
		"Links" : "http://topostext.org/place/372220LSte",
		"Lat" : "37.2099",
		"Lon" : "22.002",
		"Type" : null,
		"Label" : "Stenykleros region (Messenia)",
		"Tags" : "regional",
		"Comments" : null
	},
	{
		"BookID" : "4.7.1",
		"Place" : "Λακεδαιμόνιοι",
		"Links" : "http://topostext.org/place/371224PSpa",
		"Lat" : "37.0821",
		"Lon" : "22.4237",
		"Type" : null,
		"Label" : "Sparta/Lacedaemon (Lakonia)",
		"Tags" : "historical|Lacedaemonians|proxy",
		"Comments" : null
	},
	{
		"BookID" : "4.7.1",
		"Place" : "Μεσσηνίαν",
		"Links" : "http://topostext.org/place/372218RMes",
		"Lat" : "37.2",
		"Lon" : "21.8",
		"Type" : null,
		"Label" : "Messenia region (Messenia)",
		"Tags" : null,
		"Comments" : null
	},
	{
		"BookID" : "4.7.1",
		"Place" : "Μεσσηνίους",
		"Links" : "http://topostext.org/place/372219PMes",
		"Lat" : "37.1779",
		"Lon" : "21.9195",
		"Type" : null,
		"Label" : "Messene (Messenia)",
		"Tags" : "historical|person|proxy",
		"Comments" : null
	},
	{
		"BookID" : "4.7.2",
		"Place" : "Λακωνικῆς",
		"Links" : "http://pleiades.stoa.org/places/570406",
		"Lat" : "37.07624042080912",
		"Lon" : "22.46082645177671",
		"Type" : "region",
		"Label" : "Lacedaemon/Laconia",
		"Tags" : "regional",
		"Comments" : null
	},
	{
		"BookID" : "4.7.2",
		"Place" : "Μεσσήνιοι",
		"Links" : "http://topostext.org/place/372218RMes",
		"Lat" : "37.2",
		"Lon" : "21.8",
		"Type" : null,
		"Label" : "Messenia region (Messenia)",
		"Tags" : "historical|Messenians|proxy",
		"Comments" : null
	},
	{
		"BookID" : "4.7.2",
		"Place" : "Ταΰγετον",
		"Links" : "http://dare.ht.lu.se/places/41218",
		"Lat" : "36.9528148",
		"Lon" : "22.3503405",
		"Type" : "mountain",
		"Label" : "Taygetos Mons, Taygetos|Taygetos M.",
		"Tags" : "physical|mountain",
		"Comments" : null
	},
	{
		"BookID" : "4.7.3",
		"Place" : "Ἀμφείᾳ",
		"Links" : "http://dare.ht.lu.se/places/27401",
		"Lat" : "37.264193",
		"Lon" : "22.075138",
		"Type" : "settlement",
		"Label" : "Ampheia, Gardiki|Ampheia",
		"Tags" : "built|settlement",
		"Comments" : null
	},
	{
		"BookID" : "4.7.3",
		"Place" : "Ἀμφείας",
		"Links" : "http://pleiades.stoa.org/places/570071",
		"Lat" : "37.264193",
		"Lon" : "22.075138",
		"Type" : "settlement",
		"Label" : "Ampheia, Gardiki|Ampheia",
		"Tags" : "built|polisma",
		"Comments" : null
	},
	{
		"BookID" : "4.7.3",
		"Place" : "Λακεδαιμόνιοι",
		"Links" : "http://topostext.org/place/371224PSpa",
		"Lat" : "37.0821",
		"Lon" : "22.4237",
		"Type" : null,
		"Label" : "Sparta/Lacedaemon (Lakonia)",
		"Tags" : "historical|Lacedaemonians|proxy",
		"Comments" : null
	},
	{
		"BookID" : "4.7.3",
		"Place" : "Λακεδαιμονίους",
		"Links" : "http://pleiades.stoa.org/places/570406",
		"Lat" : "37.07624042080912",
		"Lon" : "22.46082645177671",
		"Type" : "region",
		"Label" : "Lacedaemon/Laconia",
		"Tags" : "historical|Lacedaemonians|proxy",
		"Comments" : null
	},
	{
		"BookID" : "4.7.3",
		"Place" : "Μεσσηνίους",
		"Links" : "http://topostext.org/place/372219PMes",
		"Lat" : "37.1779",
		"Lon" : "21.9195",
		"Type" : null,
		"Label" : "Messene (Messenia)",
		"Tags" : "historical|person|proxy",
		"Comments" : null
	},
	{
		"BookID" : "4.7.3",
		"Place" : "Μεσσηνίων",
		"Links" : "http://dare.ht.lu.se/places/21909",
		"Lat" : "37.175491",
		"Lon" : "21.920439",
		"Type" : "sanctuary,settlement,fort",
		"Label" : "Messene, Mavromati|Ithome, Ithomi|Sanctuary of Zeus Ithomatas, Mavromati|Ithome/Thamiai|Messene",
		"Tags" : "historical|Messenians|proxy",
		"Comments" : null
	},
	{
		"BookID" : "4.7.4",
		"Place" : "Μεσσηνίᾳ",
		"Links" : "http://topostext.org/place/372218RMes",
		"Lat" : "37.2",
		"Lon" : "21.8",
		"Type" : null,
		"Label" : "Messenia region (Messenia)",
		"Tags" : "regional",
		"Comments" : null
	},
	{
		"BookID" : "4.7.4",
		"Place" : "Μεσσηνίους",
		"Links" : "http://topostext.org/place/372219PMes",
		"Lat" : "37.1779",
		"Lon" : "21.9195",
		"Type" : null,
		"Label" : "Messene (Messenia)",
		"Tags" : "historical|person|proxy",
		"Comments" : null
	},
	{
		"BookID" : "4.7.6",
		"Place" : "Λακεδαιμονίοις",
		"Links" : "http://topostext.org/place/371224PSpa",
		"Lat" : "37.0821",
		"Lon" : "22.4237",
		"Type" : null,
		"Label" : "Sparta/Lacedaemon (Lakonia)",
		"Tags" : "historical|Lacedaemonians|proxy",
		"Comments" : null
	},
	{
		"BookID" : "4.7.6",
		"Place" : "Μεσσηνίους",
		"Links" : "http://topostext.org/place/372219PMes",
		"Lat" : "37.1779",
		"Lon" : "21.9195",
		"Type" : null,
		"Label" : "Messene (Messenia)",
		"Tags" : "historical|person|proxy",
		"Comments" : null
	},
	{
		"BookID" : "4.7.7",
		"Place" : "Μεσσήνιοι",
		"Links" : "http://topostext.org/place/372218RMes",
		"Lat" : "37.2",
		"Lon" : "21.8",
		"Type" : null,
		"Label" : "Messenia region (Messenia)",
		"Tags" : "historical|Messenians|proxy",
		"Comments" : null
	},
	{
		"BookID" : "4.7.7",
		"Place" : "Μεσσηνίους",
		"Links" : "http://topostext.org/place/372219PMes",
		"Lat" : "37.1779",
		"Lon" : "21.9195",
		"Type" : null,
		"Label" : "Messene (Messenia)",
		"Tags" : "historical|person|proxy",
		"Comments" : null
	},
	{
		"BookID" : "4.7.7",
		"Place" : "Σπαρτιατῶν",
		"Links" : "http://dare.ht.lu.se/places/21911",
		"Lat" : "37.08149",
		"Lon" : "22.42454",
		"Type" : "theatre,temple,settlement,temple-2",
		"Label" : "Sparta/Sparte, Sparti|Sparta",
		"Tags" : "historical|Spartans|proxy|Q369194",
		"Comments" : "Spartiates"
	},
	{
		"BookID" : "4.7.7",
		"Place" : "στρατείαν",
		"Links" : "http://dare.ht.lu.se/places/21911",
		"Lat" : "37.08149",
		"Lon" : "22.42454",
		"Type" : "theatre,temple,settlement,temple-2",
		"Label" : "Sparta/Sparte, Sparti|Sparta",
		"Tags" : "Lacedaemonian|strateia",
		"Comments" : "Lacedaemonian expedition against the Messenians"
	},
	{
		"BookID" : "4.7.8",
		"Place" : "Θηβῶν",
		"Links" : "http://topostext.org/place/383233PThe",
		"Lat" : "38.3191",
		"Lon" : "23.3178",
		"Type" : null,
		"Label" : "Thebes (Boeotia)",
		"Tags" : null,
		"Comments" : null
	},
	{
		"BookID" : "4.7.8",
		"Place" : "Λακεδαιμονίοις",
		"Links" : "http://topostext.org/place/371224PSpa",
		"Lat" : "37.0821",
		"Lon" : "22.4237",
		"Type" : null,
		"Label" : "Sparta/Lacedaemon (Lakonia)",
		"Tags" : "historical|Lacedaemonians|proxy",
		"Comments" : null
	},
	{
		"BookID" : "4.7.8",
		"Place" : "Λακεδαιμόνιος",
		"Links" : "http://topostext.org/place/371224PSpa",
		"Lat" : "37.0821",
		"Lon" : "22.4237",
		"Type" : null,
		"Label" : "Sparta/Lacedaemon (Lakonia)",
		"Tags" : "proxy|male",
		"Comments" : null
	},
	{
		"BookID" : "4.7.8",
		"Place" : "Λακεδαιμονίων",
		"Links" : "http://topostext.org/place/371224PSpa",
		"Lat" : "37.0821",
		"Lon" : "22.4237",
		"Type" : null,
		"Label" : "Sparta/Lacedaemon (Lakonia)",
		"Tags" : "historical|Lacedaemonians|proxy",
		"Comments" : null
	},
	{
		"BookID" : "4.7.8",
		"Place" : "Μεσσηνίοις",
		"Links" : "http://topostext.org/place/372218RMes",
		"Lat" : "37.2",
		"Lon" : "21.8",
		"Type" : null,
		"Label" : "Messenia region (Messenia)",
		"Tags" : "historical|Messenians|proxy",
		"Comments" : null
	},
	{
		"BookID" : "4.7.9",
		"Place" : "Λακεδαιμονίους",
		"Links" : "http://pleiades.stoa.org/places/570406",
		"Lat" : "37.07624042080912",
		"Lon" : "22.46082645177671",
		"Type" : "region",
		"Label" : "Lacedaemon/Laconia",
		"Tags" : "historical|Lacedaemonians|proxy",
		"Comments" : null
	},
	{
		"BookID" : "4.7.9",
		"Place" : "Μεσσηνίων",
		"Links" : "http://dare.ht.lu.se/places/21909",
		"Lat" : "37.175491",
		"Lon" : "21.920439",
		"Type" : "sanctuary,settlement,fort",
		"Label" : "Messene, Mavromati|Ithome, Ithomi|Sanctuary of Zeus Ithomatas, Mavromati|Ithome/Thamiai|Messene",
		"Tags" : "historical|Messenians|proxy",
		"Comments" : null
	},
	{
		"BookID" : "4.7.9",
		"Place" : "Σπαρτιάτης",
		"Links" : "http://dare.ht.lu.se/places/21911",
		"Lat" : "37.08149",
		"Lon" : "22.42454",
		"Type" : "theatre,temple,settlement,temple-2",
		"Label" : "Sparta/Sparte, Sparti|Sparta",
		"Tags" : "Q369194|proxy|male",
		"Comments" : "Spartiates, elite of Sparta"
	},
	{
		"BookID" : "4.7.10",
		"Place" : "Ἀμφείᾳ",
		"Links" : "http://dare.ht.lu.se/places/27401",
		"Lat" : "37.264193",
		"Lon" : "22.075138",
		"Type" : "settlement",
		"Label" : "Ampheia, Gardiki|Ampheia",
		"Tags" : "built|settlement",
		"Comments" : null
	},
	{
		"BookID" : "4.8.1",
		"Place" : "Λακεδαιμόνιοι",
		"Links" : "http://topostext.org/place/371224PSpa",
		"Lat" : "37.0821",
		"Lon" : "22.4237",
		"Type" : null,
		"Label" : "Sparta/Lacedaemon (Lakonia)",
		"Tags" : "historical|Lacedaemonians|proxy",
		"Comments" : null
	},
	{
		"BookID" : "4.8.1",
		"Place" : "Λακεδαιμονίους",
		"Links" : "http://pleiades.stoa.org/places/570406",
		"Lat" : "37.07624042080912",
		"Lon" : "22.46082645177671",
		"Type" : "region",
		"Label" : "Lacedaemon/Laconia",
		"Tags" : "historical|Lacedaemonians|proxy",
		"Comments" : null
	},
	{
		"BookID" : "4.8.1",
		"Place" : "Μεσσήνιοι",
		"Links" : "http://topostext.org/place/372218RMes",
		"Lat" : "37.2",
		"Lon" : "21.8",
		"Type" : null,
		"Label" : "Messenia region (Messenia)",
		"Tags" : "historical|Messenians|proxy",
		"Comments" : null
	},
	{
		"BookID" : "4.8.2",
		"Place" : "Λακεδαιμόνιοι",
		"Links" : "http://topostext.org/place/371224PSpa",
		"Lat" : "37.0821",
		"Lon" : "22.4237",
		"Type" : null,
		"Label" : "Sparta/Lacedaemon (Lakonia)",
		"Tags" : "historical|Lacedaemonians|proxy",
		"Comments" : null
	},
	{
		"BookID" : "4.8.2",
		"Place" : "Μεσσηνίους",
		"Links" : "http://topostext.org/place/372219PMes",
		"Lat" : "37.1779",
		"Lon" : "21.9195",
		"Type" : null,
		"Label" : "Messene (Messenia)",
		"Tags" : "historical|person|proxy",
		"Comments" : null
	},
	{
		"BookID" : "4.8.3",
		"Place" : "Ἀργείων",
		"Links" : "http://dare.ht.lu.se/places/21779",
		"Lat" : "37.631561",
		"Lon" : "22.719464",
		"Type" : "settlement",
		"Label" : "Argos, Argos|Argos",
		"Tags" : "historical|Argives|proxy",
		"Comments" : null
	},
	{
		"BookID" : "4.8.3",
		"Place" : "Ἀσιναῖοί",
		"Links" : "http://topostext.org/place/375229PAsi",
		"Lat" : "37.528",
		"Lon" : "22.8745",
		"Type" : null,
		"Label" : "Asine (Argolid)",
		"Tags" : "proxy|Asineans",
		"Comments" : null
	},
	{
		"BookID" : "4.8.3",
		"Place" : "Κρῆτας",
		"Links" : "http://topostext.org/place/352252IKre",
		"Lat" : "35.2052",
		"Lon" : "25.1836",
		"Type" : null,
		"Label" : "Crete (Greece)",
		"Tags" : "proxy|Cretans",
		"Comments" : null
	},
	{
		"BookID" : "4.8.3",
		"Place" : "Λακεδαίμονα",
		"Links" : "http://topostext.org/place/371224PSpa",
		"Lat" : "37.0821",
		"Lon" : "22.4237",
		"Type" : null,
		"Label" : "Sparta/Lacedaemon (Lakonia)",
		"Tags" : "built|polis",
		"Comments" : null
	},
	{
		"BookID" : "4.8.3",
		"Place" : "Λακεδαιμόνιοι",
		"Links" : "http://topostext.org/place/371224PSpa",
		"Lat" : "37.0821",
		"Lon" : "22.4237",
		"Type" : null,
		"Label" : "Sparta/Lacedaemon (Lakonia)",
		"Tags" : "historical|Lacedaemonians|proxy",
		"Comments" : null
	},
	{
		"BookID" : "4.8.3",
		"Place" : "Μεσσηνίων",
		"Links" : "http://dare.ht.lu.se/places/21909",
		"Lat" : "37.175491",
		"Lon" : "21.920439",
		"Type" : "sanctuary,settlement,fort",
		"Label" : "Messene, Mavromati|Ithome, Ithomi|Sanctuary of Zeus Ithomatas, Mavromati|Ithome/Thamiai|Messene",
		"Tags" : "historical|Messenians|proxy",
		"Comments" : null
	},
	{
		"BookID" : "4.8.4",
		"Place" : "Λακεδαιμονίοις",
		"Links" : "http://topostext.org/place/371224PSpa",
		"Lat" : "37.0821",
		"Lon" : "22.4237",
		"Type" : null,
		"Label" : "Sparta/Lacedaemon (Lakonia)",
		"Tags" : "historical|Lacedaemonians|proxy",
		"Comments" : null
	},
	{
		"BookID" : "4.8.4",
		"Place" : "Μεσσηνίοις",
		"Links" : "http://topostext.org/place/372218RMes",
		"Lat" : "37.2",
		"Lon" : "21.8",
		"Type" : null,
		"Label" : "Messenia region (Messenia)",
		"Tags" : "historical|Messenians|proxy",
		"Comments" : null
	},
	{
		"BookID" : "4.8.6",
		"Place" : "Λακεδαιμόνιοι",
		"Links" : "http://topostext.org/place/371224PSpa",
		"Lat" : "37.0821",
		"Lon" : "22.4237",
		"Type" : null,
		"Label" : "Sparta/Lacedaemon (Lakonia)",
		"Tags" : "historical|Lacedaemonians|proxy",
		"Comments" : null
	},
	{
		"BookID" : "4.8.6",
		"Place" : "Μεσσηνίοις",
		"Links" : "http://topostext.org/place/372218RMes",
		"Lat" : "37.2",
		"Lon" : "21.8",
		"Type" : null,
		"Label" : "Messenia region (Messenia)",
		"Tags" : "historical|Messenians|proxy",
		"Comments" : null
	},
	{
		"BookID" : "4.8.6",
		"Place" : "Μεσσηνίους",
		"Links" : "http://topostext.org/place/372219PMes",
		"Lat" : "37.1779",
		"Lon" : "21.9195",
		"Type" : null,
		"Label" : "Messene (Messenia)",
		"Tags" : "historical|person|proxy",
		"Comments" : null
	},
	{
		"BookID" : "4.8.8",
		"Place" : "Ἄργους",
		"Links" : "http://dare.ht.lu.se/places/21779",
		"Lat" : "37.631561",
		"Lon" : "22.719464",
		"Type" : "settlement",
		"Label" : "Argos, Argos|Argos",
		"Tags" : "built|polis",
		"Comments" : null
	},
	{
		"BookID" : "4.8.8",
		"Place" : "πατρίδα",
		"Links" : "http://topostext.org/place/383233PThe",
		"Lat" : "38.3191",
		"Lon" : "23.3178",
		"Type" : null,
		"Label" : "Thebes (Boeotia)",
		"Tags" : "built|patrida",
		"Comments" : "Thebes, patrida of Polyneikes, ancestor of king Theopompus of Sparta, who was originally from Thebes"
	},
	{
		"BookID" : "4.8.9",
		"Place" : "Λακεδαιμονίων",
		"Links" : "http://topostext.org/place/371224PSpa",
		"Lat" : "37.0821",
		"Lon" : "22.4237",
		"Type" : null,
		"Label" : "Sparta/Lacedaemon (Lakonia)",
		"Tags" : "historical|Lacedaemonians|proxy",
		"Comments" : null
	},
	{
		"BookID" : "4.8.9",
		"Place" : "Μεσσηνίων",
		"Links" : "http://dare.ht.lu.se/places/21909",
		"Lat" : "37.175491",
		"Lon" : "21.920439",
		"Type" : "sanctuary,settlement,fort",
		"Label" : "Messene, Mavromati|Ithome, Ithomi|Sanctuary of Zeus Ithomatas, Mavromati|Ithome/Thamiai|Messene",
		"Tags" : "historical|Messenians|proxy",
		"Comments" : null
	},
	{
		"BookID" : "4.8.10",
		"Place" : "Λακεδαιμονίοις",
		"Links" : "http://topostext.org/place/371224PSpa",
		"Lat" : "37.0821",
		"Lon" : "22.4237",
		"Type" : null,
		"Label" : "Sparta/Lacedaemon (Lakonia)",
		"Tags" : "historical|Lacedaemonians|proxy",
		"Comments" : null
	},
	{
		"BookID" : "4.8.10",
		"Place" : "Μεσσηνίοις",
		"Links" : "http://topostext.org/place/372218RMes",
		"Lat" : "37.2",
		"Lon" : "21.8",
		"Type" : null,
		"Label" : "Messenia region (Messenia)",
		"Tags" : "historical|Messenians|proxy",
		"Comments" : null
	},
	{
		"BookID" : "4.8.10",
		"Place" : "Μεσσηνίοις",
		"Links" : "http://topostext.org/place/372218RMes",
		"Lat" : "37.2",
		"Lon" : "21.8",
		"Type" : null,
		"Label" : "Messenia region (Messenia)",
		"Tags" : "historical|Messenians|proxy",
		"Comments" : null
	},
	{
		"BookID" : "4.8.11",
		"Place" : "Λακεδαιμονίους",
		"Links" : "http://pleiades.stoa.org/places/570406",
		"Lat" : "37.07624042080912",
		"Lon" : "22.46082645177671",
		"Type" : "region",
		"Label" : "Lacedaemon/Laconia",
		"Tags" : "historical|Lacedaemonians|proxy",
		"Comments" : null
	},
	{
		"BookID" : "4.8.11",
		"Place" : "Λακεδαιμονίων",
		"Links" : "http://topostext.org/place/371224PSpa",
		"Lat" : "37.0821",
		"Lon" : "22.4237",
		"Type" : null,
		"Label" : "Sparta/Lacedaemon (Lakonia)",
		"Tags" : "historical|Lacedaemonians|proxy",
		"Comments" : null
	},
	{
		"BookID" : "4.8.11",
		"Place" : "Μεσσηνίοις",
		"Links" : "http://topostext.org/place/372218RMes",
		"Lat" : "37.2",
		"Lon" : "21.8",
		"Type" : null,
		"Label" : "Messenia region (Messenia)",
		"Tags" : "historical|Messenians|proxy",
		"Comments" : null
	},
	{
		"BookID" : "4.8.12",
		"Place" : "Κρῆτες",
		"Links" : "http://pleiades.stoa.org/places/589748",
		"Lat" : "35.21984439173344",
		"Lon" : "24.995769971494504",
		"Type" : "island",
		"Label" : "Creta (island)",
		"Tags" : "historical|Cretans|proxy",
		"Comments" : null
	},
	{
		"BookID" : "4.8.12",
		"Place" : "Λακεδαιμονίοις",
		"Links" : "http://topostext.org/place/371224PSpa",
		"Lat" : "37.0821",
		"Lon" : "22.4237",
		"Type" : null,
		"Label" : "Sparta/Lacedaemon (Lakonia)",
		"Tags" : "historical|Lacedaemonians|proxy",
		"Comments" : null
	},
	{
		"BookID" : "4.8.12",
		"Place" : "Μεσσηνίων",
		"Links" : "http://dare.ht.lu.se/places/21909",
		"Lat" : "37.175491",
		"Lon" : "21.920439",
		"Type" : "sanctuary,settlement,fort",
		"Label" : "Messene, Mavromati|Ithome, Ithomi|Sanctuary of Zeus Ithomatas, Mavromati|Ithome/Thamiai|Messene",
		"Tags" : "historical|Messenians|proxy",
		"Comments" : null
	},
	{
		"BookID" : "4.8.12",
		"Place" : "Πελοποννήσιοι",
		"Links" : "http://pleiades.stoa.org/places/570577",
		"Lat" : "37.25289777692308",
		"Lon" : "22.312752688461543",
		"Type" : "peninsula,region",
		"Label" : "Peloponnesus/Peloponnesos/Peloponnese",
		"Tags" : "historical|Peloponnesians|proxy",
		"Comments" : null
	},
	{
		"BookID" : "4.9.1",
		"Place" : "Ἰθώμην",
		"Links" : "http://pleiades.stoa.org/places/570318",
		"Lat" : "37.1857343",
		"Lon" : "21.9249021",
		"Type" : "mountain",
		"Label" : "Ithome Mons, Ithome|Ithome M.",
		"Tags" : "physical|oros",
		"Comments" : null
	},
	{
		"BookID" : "4.9.1",
		"Place" : "Λακεδαιμονίους",
		"Links" : "http://pleiades.stoa.org/places/570406",
		"Lat" : "37.07624042080912",
		"Lon" : "22.46082645177671",
		"Type" : "region",
		"Label" : "Lacedaemon/Laconia",
		"Tags" : "historical|Lacedaemonians|proxy",
		"Comments" : null
	},
	{
		"BookID" : "4.9.1",
		"Place" : "Μεσσηνίοις",
		"Links" : "http://topostext.org/place/372218RMes",
		"Lat" : "37.2",
		"Lon" : "21.8",
		"Type" : null,
		"Label" : "Messenia region (Messenia)",
		"Tags" : "historical|Messenians|proxy",
		"Comments" : null
	},
	{
		"BookID" : "4.9.2",
		"Place" : "Ἰθώμη",
		"Links" : "http://dare.ht.lu.se/places/43552",
		"Lat" : "37.1857343",
		"Lon" : "21.9249021",
		"Type" : "mountain",
		"Label" : "Ithome Mons, Ithome|Ithome M.",
		"Tags" : "physical|oros",
		"Comments" : null
	},
	{
		"BookID" : "4.9.2",
		"Place" : "Ἰθώμην",
		"Links" : "http://pleiades.stoa.org/places/570318",
		"Lat" : "37.1857343",
		"Lon" : "21.9249021",
		"Type" : "mountain",
		"Label" : "Ithome Mons, Ithome|Ithome M.",
		"Tags" : "physical|oros",
		"Comments" : null
	},
	{
		"BookID" : "4.9.2",
		"Place" : "ἰσθμοῦ",
		"Links" : "http://pleiades.stoa.org/places/570317",
		"Lat" : "37.9510881",
		"Lon" : "22.9602226",
		"Type" : "isthmus",
		"Label" : "Isthmos",
		"Tags" : "physical|isthmos",
		"Comments" : null
	},
	{
		"BookID" : "4.9.3",
		"Place" : "Ἀμφείᾳ",
		"Links" : "http://dare.ht.lu.se/places/27401",
		"Lat" : "37.264193",
		"Lon" : "22.075138",
		"Type" : "settlement",
		"Label" : "Ampheia, Gardiki|Ampheia",
		"Tags" : "built|settlement",
		"Comments" : null
	},
	{
		"BookID" : "4.9.3",
		"Place" : "Δελφούς",
		"Links" : "http://dare.ht.lu.se/places/21949",
		"Lat" : "38.482289",
		"Lon" : "22.501169",
		"Type" : "sanctuary,settlement",
		"Label" : "Delphi/Delphoi, Delphi|Delphi",
		"Tags" : "built|hieron",
		"Comments" : null
	},
	{
		"BookID" : "4.9.3",
		"Place" : "Δελφῶν",
		"Links" : "http://dare.ht.lu.se/places/21949",
		"Lat" : "38.482289",
		"Lon" : "22.501169",
		"Type" : "sanctuary,settlement",
		"Label" : "Delphi/Delphoi, Delphi|Delphi",
		"Tags" : "built|hieron",
		"Comments" : null
	},
	{
		"BookID" : "4.9.3",
		"Place" : "Λακεδαιμονίων",
		"Links" : "http://topostext.org/place/371224PSpa",
		"Lat" : "37.0821",
		"Lon" : "22.4237",
		"Type" : null,
		"Label" : "Sparta/Lacedaemon (Lakonia)",
		"Tags" : "historical|Lacedaemonians|proxy",
		"Comments" : null
	},
	{
		"BookID" : "4.9.4",
		"Place" : "Ἰθώμην",
		"Links" : "http://dare.ht.lu.se/places/43552",
		"Lat" : "37.1857343",
		"Lon" : "21.9249021",
		"Type" : "mountain",
		"Label" : "Ithome Mons, Ithome|Ithome M.",
		"Tags" : "physical|oros",
		"Comments" : null
	},
	{
		"BookID" : "4.9.4",
		"Place" : "Μεσσηνίους",
		"Links" : "http://topostext.org/place/372219PMes",
		"Lat" : "37.1779",
		"Lon" : "21.9195",
		"Type" : null,
		"Label" : "Messene (Messenia)",
		"Tags" : "historical|person|proxy",
		"Comments" : null
	},
	{
		"BookID" : "4.9.5",
		"Place" : "Σπάρτην",
		"Links" : "http://dare.ht.lu.se/places/21911",
		"Lat" : "37.08149",
		"Lon" : "22.42454",
		"Type" : "theatre,temple,settlement,temple-2",
		"Label" : "Sparta/Sparte, Sparti|Sparta",
		"Tags" : "built|polis",
		"Comments" : null
	},
	{
		"BookID" : "4.9.6",
		"Place" : "Μεσσήνην",
		"Links" : "http://dare.ht.lu.se/places/21909",
		"Lat" : "37.175491",
		"Lon" : "21.920439",
		"Type" : "sanctuary,settlement,fort",
		"Label" : "Messene, Mavromati|Ithome, Ithomi|Sanctuary of Zeus Ithomatas, Mavromati|Ithome/Thamiai|Messene",
		"Tags" : "built|polis",
		"Comments" : null
	},
	{
		"BookID" : "4.9.6",
		"Place" : "Μεσσηνίων",
		"Links" : "http://dare.ht.lu.se/places/21909",
		"Lat" : "37.175491",
		"Lon" : "21.920439",
		"Type" : "sanctuary,settlement,fort",
		"Label" : "Messene, Mavromati|Ithome, Ithomi|Sanctuary of Zeus Ithomatas, Mavromati|Ithome/Thamiai|Messene",
		"Tags" : "historical|Messenians|proxy",
		"Comments" : null
	},
	{
		"BookID" : "4.9.7",
		"Place" : "Μεσσηνίων",
		"Links" : "http://dare.ht.lu.se/places/21909",
		"Lat" : "37.175491",
		"Lon" : "21.920439",
		"Type" : "sanctuary,settlement,fort",
		"Label" : "Messene, Mavromati|Ithome, Ithomi|Sanctuary of Zeus Ithomatas, Mavromati|Ithome/Thamiai|Messene",
		"Tags" : "historical|Messenians|proxy",
		"Comments" : null
	},
	{
		"BookID" : "4.9.9",
		"Place" : "Μεσσηνίους",
		"Links" : "http://topostext.org/place/372219PMes",
		"Lat" : "37.1779",
		"Lon" : "21.9195",
		"Type" : null,
		"Label" : "Messene (Messenia)",
		"Tags" : "historical|person|proxy",
		"Comments" : null
	},
	{
		"BookID" : "4.9.9",
		"Place" : "Μεσσηνίων",
		"Links" : "http://dare.ht.lu.se/places/21909",
		"Lat" : "37.175491",
		"Lon" : "21.920439",
		"Type" : "sanctuary,settlement,fort",
		"Label" : "Messene, Mavromati|Ithome, Ithomi|Sanctuary of Zeus Ithomatas, Mavromati|Ithome/Thamiai|Messene",
		"Tags" : "historical|Messenians|proxy",
		"Comments" : null
	},
	{
		"BookID" : "4.10.1",
		"Place" : "Ἀργεῖοι",
		"Links" : "http://dare.ht.lu.se/places/21779",
		"Lat" : "37.631561",
		"Lon" : "22.719464",
		"Type" : "settlement",
		"Label" : "Argos, Argos|Argos",
		"Tags" : "historical|Argives|proxy",
		"Comments" : null
	},
	{
		"BookID" : "4.10.1",
		"Place" : "Ἀργείοις",
		"Links" : "http://dare.ht.lu.se/places/21779",
		"Lat" : "37.631561",
		"Lon" : "22.719464",
		"Type" : "settlement",
		"Label" : "Argos, Argos|Argos",
		"Tags" : "historical|Argives|proxy",
		"Comments" : null
	},
	{
		"BookID" : "4.10.1",
		"Place" : "Ἀρκάσιν",
		"Links" : "http://pleiades.stoa.org/places/570102",
		"Lat" : "37.567419268449626",
		"Lon" : "22.165323097346306",
		"Type" : "region",
		"Label" : "Arcadia",
		"Tags" : "historical|Arcadians|proxy",
		"Comments" : null
	},
	{
		"BookID" : "4.10.1",
		"Place" : "Ἀρκάσιν",
		"Links" : "http://pleiades.stoa.org/places/570102",
		"Lat" : "37.567419268449626",
		"Lon" : "22.165323097346306",
		"Type" : "region",
		"Label" : "Arcadia",
		"Tags" : "historical|Arcadians|proxy",
		"Comments" : null
	},
	{
		"BookID" : "4.10.1",
		"Place" : "Ἰθώμην",
		"Links" : "http://dare.ht.lu.se/places/43552",
		"Lat" : "37.1857343",
		"Lon" : "21.9249021",
		"Type" : "mountain",
		"Label" : "Ithome Mons, Ithome|Ithome M.",
		"Tags" : "physical|oros",
		"Comments" : null
	},
	{
		"BookID" : "4.10.1",
		"Place" : "Ἰθώμης",
		"Links" : "http://dare.ht.lu.se/places/43552",
		"Lat" : "37.1857343",
		"Lon" : "21.9249021",
		"Type" : "mountain",
		"Label" : "Ithome Mons, Ithome|Ithome M.",
		"Tags" : "physical|mountain",
		"Comments" : null
	},
	{
		"BookID" : "4.10.1",
		"Place" : "Κρῆτες",
		"Links" : "http://pleiades.stoa.org/places/589748",
		"Lat" : "35.21984439173344",
		"Lon" : "24.995769971494504",
		"Type" : "island",
		"Label" : "Creta (island)",
		"Tags" : "historical|Cretans|proxy",
		"Comments" : null
	},
	{
		"BookID" : "4.10.1",
		"Place" : "Λακεδαιμόνιοι",
		"Links" : "http://topostext.org/place/371224PSpa",
		"Lat" : "37.0821",
		"Lon" : "22.4237",
		"Type" : null,
		"Label" : "Sparta/Lacedaemon (Lakonia)",
		"Tags" : "historical|Lacedaemonians|proxy",
		"Comments" : null
	},
	{
		"BookID" : "4.10.1",
		"Place" : "Λακεδαιμόνιοι",
		"Links" : "http://topostext.org/place/371224PSpa",
		"Lat" : "37.0821",
		"Lon" : "22.4237",
		"Type" : null,
		"Label" : "Sparta/Lacedaemon (Lakonia)",
		"Tags" : "historical|Lacedaemonians|proxy",
		"Comments" : null
	},
	{
		"BookID" : "4.10.1",
		"Place" : "Λακεδαιμονίων",
		"Links" : "http://topostext.org/place/371224PSpa",
		"Lat" : "37.0821",
		"Lon" : "22.4237",
		"Type" : null,
		"Label" : "Sparta/Lacedaemon (Lakonia)",
		"Tags" : "historical|Lacedaemonians|proxy",
		"Comments" : null
	},
	{
		"BookID" : "4.10.1",
		"Place" : "Μεσσηνίοις",
		"Links" : "http://topostext.org/place/372218RMes",
		"Lat" : "37.2",
		"Lon" : "21.8",
		"Type" : null,
		"Label" : "Messenia region (Messenia)",
		"Tags" : "historical|Messenians|proxy",
		"Comments" : null
	},
	{
		"BookID" : "4.10.1",
		"Place" : "Μεσσηνίους",
		"Links" : "http://topostext.org/place/372219PMes",
		"Lat" : "37.1779",
		"Lon" : "21.9195",
		"Type" : null,
		"Label" : "Messene (Messenia)",
		"Tags" : "historical|person|proxy",
		"Comments" : null
	},
	{
		"BookID" : "4.10.1",
		"Place" : "Μεσσηνίων",
		"Links" : "http://dare.ht.lu.se/places/21909",
		"Lat" : "37.175491",
		"Lon" : "21.920439",
		"Type" : "sanctuary,settlement,fort",
		"Label" : "Messene, Mavromati|Ithome, Ithomi|Sanctuary of Zeus Ithomatas, Mavromati|Ithome/Thamiai|Messene",
		"Tags" : "historical|Messenians|proxy",
		"Comments" : null
	},
	{
		"BookID" : "4.10.1",
		"Place" : "Πελοποννησίων",
		"Links" : "http://pleiades.stoa.org/places/570577",
		"Lat" : "37.25289777692308",
		"Lon" : "22.312752688461543",
		"Type" : "peninsula,region",
		"Label" : "Peloponnesus/Peloponnesos/Peloponnese",
		"Tags" : "historical|Peloponnesians|proxy",
		"Comments" : null
	},
	{
		"BookID" : "4.10.1",
		"Place" : "Σπαρτιᾶται",
		"Links" : "http://dare.ht.lu.se/places/21911",
		"Lat" : "37.08149",
		"Lon" : "22.42454",
		"Type" : "theatre,temple,settlement,temple-2",
		"Label" : "Sparta/Sparte, Sparti|Sparta",
		"Tags" : "historical|Spartans|proxy",
		"Comments" : null
	},
	{
		"BookID" : "4.10.3",
		"Place" : "Λακεδαιμόνιοι",
		"Links" : "http://topostext.org/place/371224PSpa",
		"Lat" : "37.0821",
		"Lon" : "22.4237",
		"Type" : null,
		"Label" : "Sparta/Lacedaemon (Lakonia)",
		"Tags" : "historical|Lacedaemonians|proxy",
		"Comments" : null
	},
	{
		"BookID" : "4.10.3",
		"Place" : "Μεσσηνίους",
		"Links" : "http://topostext.org/place/372219PMes",
		"Lat" : "37.1779",
		"Lon" : "21.9195",
		"Type" : null,
		"Label" : "Messene (Messenia)",
		"Tags" : "historical|person|proxy",
		"Comments" : null
	},
	{
		"BookID" : "4.10.4",
		"Place" : "Λακεδαιμονίοις",
		"Links" : "http://topostext.org/place/371224PSpa",
		"Lat" : "37.0821",
		"Lon" : "22.4237",
		"Type" : null,
		"Label" : "Sparta/Lacedaemon (Lakonia)",
		"Tags" : "historical|Lacedaemonians|proxy",
		"Comments" : null
	},
	{
		"BookID" : "4.10.4",
		"Place" : "Μεσσηνίων",
		"Links" : "http://dare.ht.lu.se/places/21909",
		"Lat" : "37.175491",
		"Lon" : "21.920439",
		"Type" : "sanctuary,settlement,fort",
		"Label" : "Messene, Mavromati|Ithome, Ithomi|Sanctuary of Zeus Ithomatas, Mavromati|Ithome/Thamiai|Messene",
		"Tags" : "historical|Messenians|proxy",
		"Comments" : null
	},
	{
		"BookID" : "4.10.6",
		"Place" : "Ἄργος",
		"Links" : "http://dare.ht.lu.se/places/21779",
		"Lat" : "37.631561",
		"Lon" : "22.719464",
		"Type" : "settlement",
		"Label" : "Argos, Argos|Argos",
		"Tags" : "built|polis",
		"Comments" : null
	},
	{
		"BookID" : "4.10.6",
		"Place" : "Ἀρκάδων",
		"Links" : "http://pleiades.stoa.org/places/570102",
		"Lat" : "37.567419268449626",
		"Lon" : "22.165323097346306",
		"Type" : "region",
		"Label" : "Arcadia",
		"Tags" : "historical|Arcadians|proxy",
		"Comments" : null
	},
	{
		"BookID" : "4.10.6",
		"Place" : "Μεσσηνίων",
		"Links" : "http://dare.ht.lu.se/places/21909",
		"Lat" : "37.175491",
		"Lon" : "21.920439",
		"Type" : "sanctuary,settlement,fort",
		"Label" : "Messene, Mavromati|Ithome, Ithomi|Sanctuary of Zeus Ithomatas, Mavromati|Ithome/Thamiai|Messene",
		"Tags" : "historical|Messenians|proxy",
		"Comments" : null
	},
	{
		"BookID" : "4.10.6",
		"Place" : "Σικυῶνα",
		"Links" : "http://dare.ht.lu.se/places/21937",
		"Lat" : "37.98336",
		"Lon" : "22.71135",
		"Type" : "settlement",
		"Label" : "Sicyon, Vasiliko|Sicyon/Demetrias",
		"Tags" : "built|polis",
		"Comments" : null
	},
	{
		"BookID" : "4.10.7",
		"Place" : "Ἀργεῖοι",
		"Links" : "http://dare.ht.lu.se/places/21779",
		"Lat" : "37.631561",
		"Lon" : "22.719464",
		"Type" : "settlement",
		"Label" : "Argos, Argos|Argos",
		"Tags" : "historical|Argives|proxy",
		"Comments" : null
	},
	{
		"BookID" : "4.10.7",
		"Place" : "Ἀρκάδων",
		"Links" : "http://pleiades.stoa.org/places/570102",
		"Lat" : "37.567419268449626",
		"Lon" : "22.165323097346306",
		"Type" : "region",
		"Label" : "Arcadia",
		"Tags" : "historical|Arcadians|proxy",
		"Comments" : null
	},
	{
		"BookID" : "4.10.7",
		"Place" : "Λακεδαιμονίους",
		"Links" : "http://pleiades.stoa.org/places/570406",
		"Lat" : "37.07624042080912",
		"Lon" : "22.46082645177671",
		"Type" : "region",
		"Label" : "Lacedaemon/Laconia",
		"Tags" : "historical|Lacedaemonians|proxy",
		"Comments" : null
	},
	{
		"BookID" : "4.10.7",
		"Place" : "Λακωνικήν",
		"Links" : "http://pleiades.stoa.org/places/570406",
		"Lat" : "37.07624042080912",
		"Lon" : "22.46082645177671",
		"Type" : "region",
		"Label" : "Lacedaemon/Laconia",
		"Tags" : "regional",
		"Comments" : null
	},
	{
		"BookID" : "4.10.7",
		"Place" : "Μεσσηνίοις",
		"Links" : "http://topostext.org/place/372218RMes",
		"Lat" : "37.2",
		"Lon" : "21.8",
		"Type" : null,
		"Label" : "Messenia region (Messenia)",
		"Tags" : "historical|Messenians|proxy",
		"Comments" : null
	},
	{
		"BookID" : "4.11.1",
		"Place" : "Ἀργείων",
		"Links" : "http://dare.ht.lu.se/places/21779",
		"Lat" : "37.631561",
		"Lon" : "22.719464",
		"Type" : "settlement",
		"Label" : "Argos, Argos|Argos",
		"Tags" : "historical|Argives|proxy",
		"Comments" : null
	},
	{
		"BookID" : "4.11.1",
		"Place" : "Ἀρκάδες",
		"Links" : "http://pleiades.stoa.org/places/570102",
		"Lat" : "37.567419268449626",
		"Lon" : "22.165323097346306",
		"Type" : "region",
		"Label" : "Arcadia",
		"Tags" : "historical|Arcadians|proxy",
		"Comments" : null
	},
	{
		"BookID" : "4.11.1",
		"Place" : "Κορίνθιοι",
		"Links" : "http://dare.ht.lu.se/places/17070",
		"Lat" : "37.906045",
		"Lon" : "22.878721",
		"Type" : "sanctuary,settlement,fort",
		"Label" : "Corinthus/Korinthos, Korinthos|Akrokorinthos, Akrokorinthos|Akrokorinthos|Corinthus/Korinthos",
		"Tags" : "historical|Corinthians|proxy",
		"Comments" : null
	},
	{
		"BookID" : "4.11.1",
		"Place" : "Κορινθίοις",
		"Links" : "http://dare.ht.lu.se/places/17070",
		"Lat" : "37.906045",
		"Lon" : "22.878721",
		"Type" : "sanctuary,settlement,fort",
		"Label" : "Corinthus/Korinthos, Korinthos|Akrokorinthos, Akrokorinthos|Akrokorinthos|Corinthus/Korinthos",
		"Tags" : "historical|Corinthians|proxy",
		"Comments" : null
	},
	{
		"BookID" : "4.11.1",
		"Place" : "Λακεδαιμόνιοι",
		"Links" : "http://topostext.org/place/371224PSpa",
		"Lat" : "37.0821",
		"Lon" : "22.4237",
		"Type" : null,
		"Label" : "Sparta/Lacedaemon (Lakonia)",
		"Tags" : "historical|Lacedaemonians|proxy",
		"Comments" : null
	},
	{
		"BookID" : "4.11.1",
		"Place" : "Λακεδαιμονίοις",
		"Links" : "http://topostext.org/place/371224PSpa",
		"Lat" : "37.0821",
		"Lon" : "22.4237",
		"Type" : null,
		"Label" : "Sparta/Lacedaemon (Lakonia)",
		"Tags" : "historical|Lacedaemonians|proxy",
		"Comments" : null
	},
	{
		"BookID" : "4.11.1",
		"Place" : "Μεσσηνίοις",
		"Links" : "http://topostext.org/place/372218RMes",
		"Lat" : "37.2",
		"Lon" : "21.8",
		"Type" : null,
		"Label" : "Messenia region (Messenia)",
		"Tags" : "historical|Messenians|proxy",
		"Comments" : null
	},
	{
		"BookID" : "4.11.1",
		"Place" : "Πελοποννησίων",
		"Links" : "http://pleiades.stoa.org/places/570577",
		"Lat" : "37.25289777692308",
		"Lon" : "22.312752688461543",
		"Type" : "peninsula,region",
		"Label" : "Peloponnesus/Peloponnesos/Peloponnese",
		"Tags" : "historical|Peloponnesians|proxy",
		"Comments" : null
	},
	{
		"BookID" : "4.11.1",
		"Place" : "Σικυωνίων",
		"Links" : "http://dare.ht.lu.se/places/21937",
		"Lat" : "37.98336",
		"Lon" : "22.71135",
		"Type" : "settlement",
		"Label" : "Sicyon, Vasiliko|Sicyon/Demetrias",
		"Tags" : "historical|Sicyonians|proxy",
		"Comments" : null
	},
	{
		"BookID" : "4.11.2",
		"Place" : "Ἀργείοις",
		"Links" : "http://dare.ht.lu.se/places/21779",
		"Lat" : "37.631561",
		"Lon" : "22.719464",
		"Type" : "settlement",
		"Label" : "Argos, Argos|Argos",
		"Tags" : "historical|Argives|proxy",
		"Comments" : null
	},
	{
		"BookID" : "4.11.2",
		"Place" : "Ἀρκάδων",
		"Links" : "http://pleiades.stoa.org/places/570102",
		"Lat" : "37.567419268449626",
		"Lon" : "22.165323097346306",
		"Type" : "region",
		"Label" : "Arcadia",
		"Tags" : "historical|Arcadians|proxy",
		"Comments" : null
	},
	{
		"BookID" : "4.11.2",
		"Place" : "Ἰθώμη",
		"Links" : "http://dare.ht.lu.se/places/43552",
		"Lat" : "37.1857343",
		"Lon" : "21.9249021",
		"Type" : "mountain",
		"Label" : "Ithome Mons, Ithome|Ithome M.",
		"Tags" : "physical|oros",
		"Comments" : null
	},
	{
		"BookID" : "4.11.2",
		"Place" : "Μεσσηνίων",
		"Links" : "http://dare.ht.lu.se/places/21909",
		"Lat" : "37.175491",
		"Lon" : "21.920439",
		"Type" : "sanctuary,settlement,fort",
		"Label" : "Messene, Mavromati|Ithome, Ithomi|Sanctuary of Zeus Ithomatas, Mavromati|Ithome/Thamiai|Messene",
		"Tags" : "historical|Messenians|proxy",
		"Comments" : null
	},
	{
		"BookID" : "4.11.2",
		"Place" : "Σικυωνίοις",
		"Links" : "http://dare.ht.lu.se/places/21937",
		"Lat" : "37.98336",
		"Lon" : "22.71135",
		"Type" : "settlement",
		"Label" : "Sicyon, Vasiliko|Sicyon/Demetrias",
		"Tags" : "historical|Sicyonians|proxy",
		"Comments" : null
	},
	{
		"BookID" : "4.11.3",
		"Place" : "Ἀρκάδων",
		"Links" : "http://pleiades.stoa.org/places/570102",
		"Lat" : "37.567419268449626",
		"Lon" : "22.165323097346306",
		"Type" : "region",
		"Label" : "Arcadia",
		"Tags" : "historical|Arcadians|proxy",
		"Comments" : null
	},
	{
		"BookID" : "4.11.4",
		"Place" : "Ἰθώμης",
		"Links" : "http://dare.ht.lu.se/places/43552",
		"Lat" : "37.1857343",
		"Lon" : "21.9249021",
		"Type" : "mountain",
		"Label" : "Ithome Mons, Ithome|Ithome M.",
		"Tags" : "physical|mountain",
		"Comments" : null
	},
	{
		"BookID" : "4.11.4",
		"Place" : "Λακεδαιμονίων",
		"Links" : "http://topostext.org/place/371224PSpa",
		"Lat" : "37.0821",
		"Lon" : "22.4237",
		"Type" : null,
		"Label" : "Sparta/Lacedaemon (Lakonia)",
		"Tags" : "historical|Lacedaemonians|proxy",
		"Comments" : null
	},
	{
		"BookID" : "4.11.4",
		"Place" : "Μεσσηνίων",
		"Links" : "http://dare.ht.lu.se/places/21909",
		"Lat" : "37.175491",
		"Lon" : "21.920439",
		"Type" : "sanctuary,settlement,fort",
		"Label" : "Messene, Mavromati|Ithome, Ithomi|Sanctuary of Zeus Ithomatas, Mavromati|Ithome/Thamiai|Messene",
		"Tags" : "historical|Messenians|proxy",
		"Comments" : null
	},
	{
		"BookID" : "4.11.5",
		"Place" : "Λακεδαιμόνιοι",
		"Links" : "http://topostext.org/place/371224PSpa",
		"Lat" : "37.0821",
		"Lon" : "22.4237",
		"Type" : null,
		"Label" : "Sparta/Lacedaemon (Lakonia)",
		"Tags" : "historical|Lacedaemonians|proxy",
		"Comments" : null
	},
	{
		"BookID" : "4.11.5",
		"Place" : "Λακεδαιμονίοις",
		"Links" : "http://topostext.org/place/371224PSpa",
		"Lat" : "37.0821",
		"Lon" : "22.4237",
		"Type" : null,
		"Label" : "Sparta/Lacedaemon (Lakonia)",
		"Tags" : "historical|Lacedaemonians|proxy",
		"Comments" : null
	},
	{
		"BookID" : "4.11.5",
		"Place" : "Λακεδαιμονίους",
		"Links" : "http://pleiades.stoa.org/places/570406",
		"Lat" : "37.07624042080912",
		"Lon" : "22.46082645177671",
		"Type" : "region",
		"Label" : "Lacedaemon/Laconia",
		"Tags" : "historical|Lacedaemonians|proxy",
		"Comments" : null
	},
	{
		"BookID" : "4.11.5",
		"Place" : "Μεσσηνίων",
		"Links" : "http://dare.ht.lu.se/places/21909",
		"Lat" : "37.175491",
		"Lon" : "21.920439",
		"Type" : "sanctuary,settlement,fort",
		"Label" : "Messene, Mavromati|Ithome, Ithomi|Sanctuary of Zeus Ithomatas, Mavromati|Ithome/Thamiai|Messene",
		"Tags" : "historical|Messenians|proxy",
		"Comments" : null
	},
	{
		"BookID" : "4.11.6",
		"Place" : "Μεσσηνίων",
		"Links" : "http://dare.ht.lu.se/places/21909",
		"Lat" : "37.175491",
		"Lon" : "21.920439",
		"Type" : "sanctuary,settlement,fort",
		"Label" : "Messene, Mavromati|Ithome, Ithomi|Sanctuary of Zeus Ithomatas, Mavromati|Ithome/Thamiai|Messene",
		"Tags" : "historical|Messenians|proxy",
		"Comments" : null
	},
	{
		"BookID" : "4.11.6",
		"Place" : "Σπαρτιατῶν",
		"Links" : "http://dare.ht.lu.se/places/21911",
		"Lat" : "37.08149",
		"Lon" : "22.42454",
		"Type" : "theatre,temple,settlement,temple-2",
		"Label" : "Sparta/Sparte, Sparti|Sparta",
		"Tags" : "historical|Spartans|proxy|Q369194",
		"Comments" : "Spartiates"
	},
	{
		"BookID" : "4.11.7",
		"Place" : "Λακεδαιμόνιοι",
		"Links" : "http://topostext.org/place/371224PSpa",
		"Lat" : "37.0821",
		"Lon" : "22.4237",
		"Type" : null,
		"Label" : "Sparta/Lacedaemon (Lakonia)",
		"Tags" : "historical|Lacedaemonians|proxy",
		"Comments" : null
	},
	{
		"BookID" : "4.11.7",
		"Place" : "Μεσσηνίων",
		"Links" : "http://dare.ht.lu.se/places/21909",
		"Lat" : "37.175491",
		"Lon" : "21.920439",
		"Type" : "sanctuary,settlement,fort",
		"Label" : "Messene, Mavromati|Ithome, Ithomi|Sanctuary of Zeus Ithomatas, Mavromati|Ithome/Thamiai|Messene",
		"Tags" : "historical|Messenians|proxy",
		"Comments" : null
	},
	{
		"BookID" : "4.11.8",
		"Place" : "Ἀργείας",
		"Links" : "http://pleiades.stoa.org/places/570104",
		"Lat" : "37.6566371145232",
		"Lon" : "22.92059272180843",
		"Type" : "region",
		"Label" : "Argolis",
		"Tags" : "regional",
		"Comments" : null
	},
	{
		"BookID" : "4.11.8",
		"Place" : "Κορινθίοις",
		"Links" : "http://dare.ht.lu.se/places/17070",
		"Lat" : "37.906045",
		"Lon" : "22.878721",
		"Type" : "sanctuary,settlement,fort",
		"Label" : "Corinthus/Korinthos, Korinthos|Akrokorinthos, Akrokorinthos|Akrokorinthos|Corinthus/Korinthos",
		"Tags" : "historical|Corinthians|proxy",
		"Comments" : null
	},
	{
		"BookID" : "4.11.8",
		"Place" : "Λακεδαιμονίων",
		"Links" : "http://topostext.org/place/371224PSpa",
		"Lat" : "37.0821",
		"Lon" : "22.4237",
		"Type" : null,
		"Label" : "Sparta/Lacedaemon (Lakonia)",
		"Tags" : "historical|Lacedaemonians|proxy",
		"Comments" : null
	},
	{
		"BookID" : "4.11.8",
		"Place" : "Σικυῶνα",
		"Links" : "http://dare.ht.lu.se/places/21937",
		"Lat" : "37.98336",
		"Lon" : "22.71135",
		"Type" : "settlement",
		"Label" : "Sicyon, Vasiliko|Sicyon/Demetrias",
		"Tags" : "built|polis",
		"Comments" : null
	},
	{
		"BookID" : "4.12.1",
		"Place" : "Δελφούς",
		"Links" : "http://dare.ht.lu.se/places/21949",
		"Lat" : "38.482289",
		"Lon" : "22.501169",
		"Type" : "sanctuary,settlement",
		"Label" : "Delphi/Delphoi, Delphi|Delphi",
		"Tags" : "built|hieron",
		"Comments" : null
	},
	{
		"BookID" : "4.12.1",
		"Place" : "Λακεδαιμονίους",
		"Links" : "http://pleiades.stoa.org/places/570406",
		"Lat" : "37.07624042080912",
		"Lon" : "22.46082645177671",
		"Type" : "region",
		"Label" : "Lacedaemon/Laconia",
		"Tags" : "historical|Lacedaemonians|proxy",
		"Comments" : null
	},
	{
		"BookID" : "4.12.1",
		"Place" : "Μεσσηνίδα",
		"Links" : "http://pleiades.stoa.org/places/570480",
		"Lat" : "37.06945533333334",
		"Lon" : "21.9323415",
		"Type" : "region",
		"Label" : "Messenia",
		"Tags" : "regional|gaia",
		"Comments" : null
	},
	{
		"BookID" : "4.12.2",
		"Place" : "Ἰθώμην",
		"Links" : "http://dare.ht.lu.se/places/43552",
		"Lat" : "37.1857343",
		"Lon" : "21.9249021",
		"Type" : "mountain",
		"Label" : "Ithome Mons, Ithome|Ithome M.",
		"Tags" : "physical|oros",
		"Comments" : null
	},
	{
		"BookID" : "4.12.2",
		"Place" : "Ἰλίῳ",
		"Links" : "http://dare.ht.lu.se/places/21153",
		"Lat" : "39.9577",
		"Lon" : "26.23873",
		"Type" : "settlement",
		"Label" : "Ilium/Troia, Hisarlık|Ilium/Troia",
		"Tags" : "settlement|built|polis|proxy",
		"Comments" : "proxy for war"
	},
	{
		"BookID" : "4.12.2",
		"Place" : "Λακεδαιμονίων",
		"Links" : "http://topostext.org/place/371224PSpa",
		"Lat" : "37.0821",
		"Lon" : "22.4237",
		"Type" : null,
		"Label" : "Sparta/Lacedaemon (Lakonia)",
		"Tags" : "historical|Lacedaemonians|proxy",
		"Comments" : null
	},
	{
		"BookID" : "4.12.3",
		"Place" : "Ἄργος",
		"Links" : "http://dare.ht.lu.se/places/21779",
		"Lat" : "37.631561",
		"Lon" : "22.719464",
		"Type" : "settlement",
		"Label" : "Argos, Argos|Argos",
		"Tags" : "built|polis",
		"Comments" : null
	},
	{
		"BookID" : "4.12.3",
		"Place" : "Ἀρκάδων",
		"Links" : "http://pleiades.stoa.org/places/570102",
		"Lat" : "37.567419268449626",
		"Lon" : "22.165323097346306",
		"Type" : "region",
		"Label" : "Arcadia",
		"Tags" : "historical|Arcadians|proxy",
		"Comments" : null
	},
	{
		"BookID" : "4.12.3",
		"Place" : "Λακεδαιμόνιοι",
		"Links" : "http://topostext.org/place/371224PSpa",
		"Lat" : "37.0821",
		"Lon" : "22.4237",
		"Type" : null,
		"Label" : "Sparta/Lacedaemon (Lakonia)",
		"Tags" : "historical|Lacedaemonians|proxy",
		"Comments" : null
	},
	{
		"BookID" : "4.12.3",
		"Place" : "Λακεδαιμονίων",
		"Links" : "http://topostext.org/place/371224PSpa",
		"Lat" : "37.0821",
		"Lon" : "22.4237",
		"Type" : null,
		"Label" : "Sparta/Lacedaemon (Lakonia)",
		"Tags" : "historical|Lacedaemonians|proxy",
		"Comments" : null
	},
	{
		"BookID" : "4.12.3",
		"Place" : "Μεσσηνίων",
		"Links" : "http://dare.ht.lu.se/places/21909",
		"Lat" : "37.175491",
		"Lon" : "21.920439",
		"Type" : "sanctuary,settlement,fort",
		"Label" : "Messene, Mavromati|Ithome, Ithomi|Sanctuary of Zeus Ithomatas, Mavromati|Ithome/Thamiai|Messene",
		"Tags" : "historical|Messenians|proxy",
		"Comments" : null
	},
	{
		"BookID" : "4.12.4",
		"Place" : "Σπάρτης",
		"Links" : "http://dare.ht.lu.se/places/21911",
		"Lat" : "37.08149",
		"Lon" : "22.42454",
		"Type" : "theatre,temple,settlement,temple-2",
		"Label" : "Sparta/Sparte, Sparti|Sparta",
		"Tags" : "built|polis",
		"Comments" : null
	},
	{
		"BookID" : "4.12.5",
		"Place" : "Ἀρκάδων",
		"Links" : "http://pleiades.stoa.org/places/570102",
		"Lat" : "37.567419268449626",
		"Lon" : "22.165323097346306",
		"Type" : "region",
		"Label" : "Arcadia",
		"Tags" : "historical|Arcadians|proxy",
		"Comments" : null
	},
	{
		"BookID" : "4.12.5",
		"Place" : "Ἰθώμην",
		"Links" : "http://dare.ht.lu.se/places/43552",
		"Lat" : "37.1857343",
		"Lon" : "21.9249021",
		"Type" : "mountain",
		"Label" : "Ithome Mons, Ithome|Ithome M.",
		"Tags" : "physical|oros",
		"Comments" : null
	},
	{
		"BookID" : "4.12.5",
		"Place" : "Μεσσήνης",
		"Links" : "http://dare.ht.lu.se/places/21909",
		"Lat" : "37.175491",
		"Lon" : "21.920439",
		"Type" : "sanctuary,settlement,fort",
		"Label" : "Messene, Mavromati|Ithome, Ithomi|Sanctuary of Zeus Ithomatas, Mavromati|Ithome/Thamiai|Messene",
		"Tags" : null,
		"Comments" : null
	},
	{
		"BookID" : "4.12.5",
		"Place" : "Μεσσηνίοις",
		"Links" : "http://topostext.org/place/372218RMes",
		"Lat" : "37.2",
		"Lon" : "21.8",
		"Type" : null,
		"Label" : "Messenia region (Messenia)",
		"Tags" : "historical|Messenians|proxy",
		"Comments" : null
	},
	{
		"BookID" : "4.12.5",
		"Place" : "Σπάρτῃ",
		"Links" : "http://dare.ht.lu.se/places/21911",
		"Lat" : "37.08149",
		"Lon" : "22.42454",
		"Type" : "theatre,temple,settlement,temple-2",
		"Label" : "Sparta/Sparte, Sparti|Sparta",
		"Tags" : "built|polis",
		"Comments" : null
	},
	{
		"BookID" : "4.12.6",
		"Place" : "Μεσσήνῃ",
		"Links" : "http://topostext.org/place/372219PMes",
		"Lat" : "37.1779",
		"Lon" : "21.9195",
		"Type" : null,
		"Label" : "Messene (Messenia)",
		"Tags" : "built|polis",
		"Comments" : null
	},
	{
		"BookID" : "4.12.7",
		"Place" : "βωμὸν",
		"Links" : "http://topostext.org/place/372219EVou",
		"Lat" : "37.1859",
		"Lon" : "21.9239",
		"Type" : null,
		"Label" : "Zeus Ithomatas/Voulkanou Monastery (Messenia)",
		"Tags" : "built|bômos|Zeus Ithomatas",
		"Comments" : "altar of Ithomian Zeus"
	},
	{
		"BookID" : "4.12.7",
		"Place" : "Δελφοὺς",
		"Links" : "http://dare.ht.lu.se/places/21949",
		"Lat" : "38.482289",
		"Lon" : "22.501169",
		"Type" : "sanctuary,settlement",
		"Label" : "Delphi/Delphoi, Delphi|Delphi",
		"Tags" : "built|hieron",
		"Comments" : null
	},
	{
		"BookID" : "4.12.7",
		"Place" : "Μεσσηνίδα",
		"Links" : "http://pleiades.stoa.org/places/570480",
		"Lat" : "37.06945533333334",
		"Lon" : "21.9323415",
		"Type" : "region",
		"Label" : "Messenia",
		"Tags" : "regional|gaia",
		"Comments" : null
	},
	{
		"BookID" : "4.12.8",
		"Place" : "Δελφῶν",
		"Links" : "http://dare.ht.lu.se/places/21949",
		"Lat" : "38.482289",
		"Lon" : "22.501169",
		"Type" : "sanctuary,settlement",
		"Label" : "Delphi/Delphoi, Delphi|Delphi",
		"Tags" : "built|hieron",
		"Comments" : null
	},
	{
		"BookID" : "4.12.8",
		"Place" : "ἱερὸν",
		"Links" : "http://dare.ht.lu.se/places/22852",
		"Lat" : "37.175491",
		"Lon" : "21.920439",
		"Type" : "sanctuary,settlement,fort",
		"Label" : "Messene, Mavromati|Ithome, Ithomi|Sanctuary of Zeus Ithomatas, Mavromati|Ithome/Thamiai|Messene",
		"Tags" : "built|hieron",
		"Comments" : null
	},
	{
		"BookID" : "4.12.8",
		"Place" : "Λακεδαιμονίους",
		"Links" : "http://pleiades.stoa.org/places/570406",
		"Lat" : "37.07624042080912",
		"Lon" : "22.46082645177671",
		"Type" : "region",
		"Label" : "Lacedaemon/Laconia",
		"Tags" : "historical|Lacedaemonians|proxy",
		"Comments" : null
	},
	{
		"BookID" : "4.12.8",
		"Place" : "Σπάρτην",
		"Links" : "http://dare.ht.lu.se/places/21911",
		"Lat" : "37.08149",
		"Lon" : "22.42454",
		"Type" : "theatre,temple,settlement,temple-2",
		"Label" : "Sparta/Sparte, Sparti|Sparta",
		"Tags" : "built|polis",
		"Comments" : null
	},
	{
		"BookID" : "4.12.9",
		"Place" : "Ἰθώμην",
		"Links" : "http://dare.ht.lu.se/places/43552",
		"Lat" : "37.1857343",
		"Lon" : "21.9249021",
		"Type" : "mountain",
		"Label" : "Ithome Mons, Ithome|Ithome M.",
		"Tags" : "physical|oros",
		"Comments" : null
	},
	{
		"BookID" : "4.12.9",
		"Place" : "Λακεδαιμονίοις",
		"Links" : "http://topostext.org/place/371224PSpa",
		"Lat" : "37.0821",
		"Lon" : "22.4237",
		"Type" : null,
		"Label" : "Sparta/Lacedaemon (Lakonia)",
		"Tags" : "historical|Lacedaemonians|proxy",
		"Comments" : null
	},
	{
		"BookID" : "4.12.9",
		"Place" : "Λακεδαιμονίων",
		"Links" : "http://topostext.org/place/371224PSpa",
		"Lat" : "37.0821",
		"Lon" : "22.4237",
		"Type" : null,
		"Label" : "Sparta/Lacedaemon (Lakonia)",
		"Tags" : "historical|Lacedaemonians|proxy",
		"Comments" : null
	},
	{
		"BookID" : "4.12.9",
		"Place" : "Μεσσηνίους",
		"Links" : "http://topostext.org/place/372219PMes",
		"Lat" : "37.1779",
		"Lon" : "21.9195",
		"Type" : null,
		"Label" : "Messene (Messenia)",
		"Tags" : "historical|person|proxy",
		"Comments" : null
	},
	{
		"BookID" : "4.12.9",
		"Place" : "Σπάρτην",
		"Links" : "http://dare.ht.lu.se/places/21911",
		"Lat" : "37.08149",
		"Lon" : "22.42454",
		"Type" : "theatre,temple,settlement,temple-2",
		"Label" : "Sparta/Sparte, Sparti|Sparta",
		"Tags" : "built|polis",
		"Comments" : null
	},
	{
		"BookID" : "4.12.10",
		"Place" : "βωμὸν",
		"Links" : "http://dare.ht.lu.se/places/22852",
		"Lat" : "37.175491",
		"Lon" : "21.920439",
		"Type" : "sanctuary,settlement,fort",
		"Label" : "Messene, Mavromati|Ithome, Ithomi|Sanctuary of Zeus Ithomatas, Mavromati|Ithome/Thamiai|Messene",
		"Tags" : "built|bômos|Zeus Ithomatas",
		"Comments" : null
	},
	{
		"BookID" : "4.12.10",
		"Place" : "Λακεδαιμονίων",
		"Links" : "http://topostext.org/place/371224PSpa",
		"Lat" : "37.0821",
		"Lon" : "22.4237",
		"Type" : null,
		"Label" : "Sparta/Lacedaemon (Lakonia)",
		"Tags" : "historical|Lacedaemonians|proxy",
		"Comments" : null
	},
	{
		"BookID" : "4.12.10",
		"Place" : "Μεσσηνίους",
		"Links" : "http://topostext.org/place/372219PMes",
		"Lat" : "37.1779",
		"Lon" : "21.9195",
		"Type" : null,
		"Label" : "Messene (Messenia)",
		"Tags" : "historical|person|proxy",
		"Comments" : null
	},
	{
		"BookID" : "4.13.1",
		"Place" : "ἄγαλμα",
		"Links" : "http://arachne.dainst.org/entity/3586415",
		"Lat" : "37.177075",
		"Lon" : "21.920267",
		"Type" : null,
		"Label" : "Cult image: Artemis  Messene (Paus. 4.13.1)",
		"Tags" : "built|agalma|Artemis",
		"Comments" : "armed statue of Artemis with shield - in the sanctuary of Zeus Ithomatas?"
	},
	{
		"BookID" : "4.13.1",
		"Place" : "βωμὸν",
		"Links" : "http://dare.ht.lu.se/places/22852",
		"Lat" : "37.175491",
		"Lon" : "21.920439",
		"Type" : "sanctuary,settlement,fort",
		"Label" : "Messene, Mavromati|Ithome, Ithomi|Sanctuary of Zeus Ithomatas, Mavromati|Ithome/Thamiai|Messene",
		"Tags" : "built|bômos|Zeus Ithomatas",
		"Comments" : null
	},
	{
		"BookID" : "4.13.1",
		"Place" : "Λακεδαιμονίων",
		"Links" : "http://topostext.org/place/371224PSpa",
		"Lat" : "37.0821",
		"Lon" : "22.4237",
		"Type" : null,
		"Label" : "Sparta/Lacedaemon (Lakonia)",
		"Tags" : "historical|Lacedaemonians|proxy",
		"Comments" : null
	},
	{
		"BookID" : "4.13.1",
		"Place" : "Μεσσηνίων",
		"Links" : "http://dare.ht.lu.se/places/21909",
		"Lat" : "37.175491",
		"Lon" : "21.920439",
		"Type" : "sanctuary,settlement,fort",
		"Label" : "Messene, Mavromati|Ithome, Ithomi|Sanctuary of Zeus Ithomatas, Mavromati|Ithome/Thamiai|Messene",
		"Tags" : "historical|Messenians|proxy",
		"Comments" : null
	},
	{
		"BookID" : "4.13.3",
		"Place" : "Μεσσήνιοι",
		"Links" : "http://topostext.org/place/372218RMes",
		"Lat" : "37.2",
		"Lon" : "21.8",
		"Type" : null,
		"Label" : "Messenia region (Messenia)",
		"Tags" : "historical|Messenians|proxy",
		"Comments" : null
	},
	{
		"BookID" : "4.13.4",
		"Place" : "Μεσσηνίους",
		"Links" : "http://topostext.org/place/372219PMes",
		"Lat" : "37.1779",
		"Lon" : "21.9195",
		"Type" : null,
		"Label" : "Messene (Messenia)",
		"Tags" : "historical|person|proxy",
		"Comments" : null
	},
	{
		"BookID" : "4.13.5",
		"Place" : "Λακεδαιμονίους",
		"Links" : "http://pleiades.stoa.org/places/570406",
		"Lat" : "37.07624042080912",
		"Lon" : "22.46082645177671",
		"Type" : "region",
		"Label" : "Lacedaemon/Laconia",
		"Tags" : "historical|Lacedaemonians|proxy",
		"Comments" : null
	},
	{
		"BookID" : "4.13.5",
		"Place" : "Μεσσηνίοις",
		"Links" : "http://topostext.org/place/372218RMes",
		"Lat" : "37.2",
		"Lon" : "21.8",
		"Type" : null,
		"Label" : "Messenia region (Messenia)",
		"Tags" : "historical|Messenians|proxy",
		"Comments" : null
	},
	{
		"BookID" : "4.13.6",
		"Place" : "Ἰθωμαίων",
		"Links" : "http://dare.ht.lu.se/places/43552",
		"Lat" : "37.1857343",
		"Lon" : "21.9249021",
		"Type" : "mountain",
		"Label" : "Ithome Mons, Ithome|Ithome M.",
		"Tags" : "physical|oros",
		"Comments" : null
	},